     3.04           OBSERVATION DATA    M (MIXED)           RINEX VERSION / TYPE
R12 6.13            Receiver Operator   20241017 083841 UTC PGM / RUN BY / DATE
A                                                           MARKER NAME
GEODETIC                                                    MARKER TYPE         
OBS                 AGENCY                                  OBSERVER / AGENCY   
6005F01017          TRIMBLE R12         6.13                REC # / TYPE / VERS
                    TRMR12          NONE                    ANT # / TYPE
 -2418127.5173  5385730.7059  2405933.6077                  APPROX POSITION XYZ
        1.7500        0.0000        0.0000                  ANTENNA: DELTA H/E/N
G   15 C1C L1C S1C C1X L1X S1X C2W L2W S2W C2X L2X S2X C5X  SYS / # / OBS TYPES
       L5X S5X                                              SYS / # / OBS TYPES
R   15 C1C L1C S1C C1P L1P S1P C2C L2C S2C C2P L2P S2P C3X  SYS / # / OBS TYPES
       L3X S3X                                              SYS / # / OBS TYPES
E   15 C1X L1X S1X C5X L5X S5X C7X L7X S7X C8X L8X S8X C6X  SYS / # / OBS TYPES
       L6X S6X                                              SYS / # / OBS TYPES
J   15 C1C L1C S1C C1X L1X S1X C1Z L1Z S1Z C2X L2X S2X C5X  SYS / # / OBS TYPES
       L5X S5X                                              SYS / # / OBS TYPES
C   18 C1X L1X S1X C5X L5X S5X C2I L2I S2I C7I L7I S7I C6I  SYS / # / OBS TYPES
       L6I S6I C7D L7D S7D                                  SYS / # / OBS TYPES
I    3 C5A L5A S5A                                          SYS / # / OBS TYPES
    30.000                                                  INTERVAL
  2024    10    17     8    39    0.0000000     GPS         TIME OF FIRST OBS
G L2X -0.25000                                              SYS / PHASE SHIFT   
R L1P  0.25000                                              SYS / PHASE SHIFT   
R L2C -0.25000                                              SYS / PHASE SHIFT   
J L2X  0.25000                                              SYS / PHASE SHIFT   
DBHZ                                                        SIGNAL STRENGTH UNIT
  8 R01  1 R02 -4 R08  6 R11  0 R12 -1 R13 -2 R21  4 R22 -3 GLONASS SLOT / FRQ #
                                                            GLONASS COD/PHS/BIS 
                                                            END OF HEADER       
> 2024 10 17  8 39  0.0000000  0 42       -.000358551000
C41  22256364.971 8 116957940.11318        48.800    22256387.525 8  87338840.43018        51.400    22256367.359 7 115894745.61217        47.800                                                    22256371.820 7  94173947.94217        47.100    22256384.012 7  89617236.47917        46.500
C40  37120286.365 7 195068599.59117        45.300    37120300.777 7 145668162.03917        47.900    37120291.667 7 193295094.15817        45.000                                                    37120288.279 7 157068074.15417        44.600    37120296.787 7 149468054.02517        42.600
C39  36752576.457 7 193136113.28917        46.400    36752580.130 7 144225070.65017        47.900    36752580.233 7 191380326.50917        46.600                                                    36752569.988 7 155512163.61217        45.200    36752578.441 7 147987401.88517        45.100
C25  23582745.037 7 123928113.37517        44.300    23582751.302 7  92543586.43617        45.900    23582748.176 7 122801556.64417        44.300                                                    23582741.274 7  99786302.14517        43.700    23582748.214 7  94957953.42617        42.600
C23  22694923.132 8 119262582.16718        48.700    22694926.822 8  89059761.17618        50.300    22694927.391 8 118178444.33218        48.300                                                    22694914.545 7  96029638.48717        46.000    22694923.826 7  91383051.85117        46.600
C16                                                                                                  36967328.756 7 192498580.04917        45.600    36967330.557 7 148852067.19517        44.700    36967320.054 6 156420839.86616        41.300
C13                                                                                                  38462656.908 6 200285142.72016        39.200    38462672.516 7 154873130.76717        42.200    38462659.843 6 162748059.05316        40.700
C04                                                                                                  38484697.062 6 200399913.66216        36.900    38484703.819 7 154961953.77717        42.100    38484695.540 6 162841338.14016        40.600
C02                                                                                                  36871664.550 6 192000435.69616        37.400    36871669.583 7 148466933.57017        46.400    36871662.631 6 156016070.40116        41.500
C01                                                                                                  37323079.260 6 194351068.23116        38.700    37323086.467 7 150284601.92817        44.100    37323078.774 6 157926157.94816        41.200
C06                                                                                                  36823674.484 7 191750532.11717        43.400    36823672.704 7 148273627.78017        44.800    36823663.799 7 155812988.12917        43.100
R12  20679913.267 7 110468382.26917        45.700    20679910.999 7 110468344.28117        45.400    20679927.818 7  85919864.80617        43.700    20679928.527 7  85919832.82617        42.800
R11  21265189.657 7 113634721.35417        47.000    21265187.256 7 113634669.36317        45.400    21265197.737 7  88382535.21617        45.800    21265197.363 7  88382549.21217        45.100
I02  39961200.353 6 156816320.55516        37.600
C43  24531455.490 6 128913617.41916        41.300    24531479.067 7  96266638.16317        44.400    24531459.865 7 127741739.79917        42.000                                                    24531464.459 7 103800603.09817        43.000    24531474.684 6  98778080.14916        40.800
C34  25170852.678 6 132273740.71516        41.600    25170872.415 6  98775900.59716        41.000    25170853.391 6 131071247.21216        39.600                                                    25170859.590 6 106506098.20316        40.900    25170868.687 6 101352641.88816        37.400
J04  35841940.660 7 188350676.73917        46.000    35841942.732 7 188350640.74117        47.500    35841939.921 7 188350677.12417        46.500    35841964.130 7 146766794.55817        47.200    35841963.697 8 140651508.06918        48.500
J07  36401594.895 6 191291668.05616        38.400    36401596.716 7 191291665.06517        42.400    36401590.741 7 191291677.79917        45.700    36401617.011 8 149058486.26718        49.100    36401616.411 8 142847712.12218        49.800
R13  23376987.724 6 124831867.16616        36.800    23376983.445 5 124831851.15915        35.100
G26  20192467.003 7 106112137.23617        46.400                                                                                                    20192488.076 7  82684806.61717        47.500    20192482.698 8  79239613.20018        50.100
J02  38433184.327 7 201967742.94717        46.200    38433185.694 8 201967519.93818        48.400    38433182.105 7 201967750.19817        46.800    38433203.662 8 157377502.43318        49.000    38433201.623 8 150820101.26318        49.600
R08  20846159.316 8 111630240.05418        48.700    20846157.400 7 111630197.07817        45.900    20846175.546 7  86823539.58017        46.100    20846174.913 7  86823503.59217        45.100
I10  36192341.161 7 142026521.06317        46.600
G28  22201105.918 7 116667611.76917        43.700    22201108.273 7 116667572.78217        44.300                                                    22201124.805 7  90909839.07617        45.300    22201125.981 8  87121914.97018        48.800
I09  38398399.349 7 150683568.93717        45.000
G32  22102927.566 7 116151682.35817        46.600                                                                                                    22102956.501 7  90507812.68017        45.700    22102953.384 7  86736624.54017        47.300
C03                                                                                                  36043130.785 6 187686049.67216        40.900    36043132.266 7 145130754.35617        44.400    36043124.928 7 152510255.34117        43.900
C59                                                                                                  36945011.414 7 192382366.85417        42.000                                                    36944995.208 7 156326366.87917        44.700    36945004.323 7 148762220.82817        44.600
C32  23423066.185 7 123088997.15417        46.300    23423080.396 8  91917316.06318        48.400    23423069.382 7 121970070.71717        45.900                                                    23423067.976 7  99110647.83617        46.100    23423077.919 7  94315024.41717        46.400
G29  24369039.165 6 128060173.19316        41.000                                                                                                    24369059.038 6  99787158.62116        38.800
C11                                                                                                  24978455.360 6 130069351.94416        37.700    24978474.590 7 100577959.20317        45.000    24978460.036 7 105692028.98817        42.800
C60                                                                                                  37422686.996 6 194869749.20716        41.600                                                    37422671.818 7 158347570.56017        44.700    37422683.563 7 150685639.04017        45.000
R02  22195739.928 7 118440739.92317        43.900    22195739.741 7 118440745.93117        43.700    22195755.234 7  92120598.06817        42.400    22195755.821 7  92120556.04917        43.200
G16  20427067.131 7 107344964.01917        44.900                                                    20427088.486 5  83645506.11215        35.400
R01  19201153.537 7 102641178.41417        46.400    19201151.034 7 102641131.41717        45.500    19201164.589 7  79832035.60217        43.300    19201165.948 6  79832004.61216        41.800
G27  23235864.341 6 122105285.05416        36.100                                                                                                    23235891.715 5  95146985.25115        35.100    23235889.164 6  91182528.03516        38.600
G31  21233298.308 7 111581742.78517        47.100                                                                                                    21233315.574 7  86946830.60517        45.500
E07  25705416.409 7 135082867.41117        44.600    25705440.739 7 100873551.89317        46.000    25705435.813 7 103504974.33717        46.600    25705440.324 8 102189302.40918        48.300    25705421.129 7 109645110.17917        45.700
E27  24873452.682 8 130710873.23818        48.000    24873463.115 7  97608776.77417        46.800    24873460.709 8 100155100.08618        48.000    24873463.657 8  98881882.22718        49.100    24873452.222 8 106096413.87418        49.400
E21  23563921.220 8 123829240.02518        49.500    23563936.097 8  92470090.54518        49.900    23563932.847 8  94882348.49418        51.000    23563936.607 8  93675991.31618        52.100    23563923.480 8 100510687.53118        52.700
E29  23194244.699 8 121886578.72518        50.200    23194255.723 8  91019194.87318        49.200    23194252.978 8  93393816.32718        50.100    23194256.118 8  92206343.39318        51.800    23194244.295 8  98933819.97118        51.700
E19  24658060.142 7 129578985.84617        43.200    24658071.851 7  96763498.98317        42.300    24658069.118 7  99287782.48917        43.400    24658072.174 7  98025609.53917        45.700    24658059.166 7 105177669.77617        43.000
> 2024 10 17  8 39 30.0000000  0 42       -.000360914000
C41  22264405.224 8 117000193.198 8        48.800    22264428.058 8  87370392.994 8        51.100    22264408.667 8 115936614.582 8        48.000                                                    22264412.255 7  94207969.852 7        47.000    22264424.811 7  89649612.157 7        46.800
C40  37111763.817 7 195023813.624 7        45.300    37111777.681 7 145634718.126 7        47.500    37111769.134 7 193250715.339 7        45.200                                                    37111765.623 7 157032012.837 7        44.500    37111774.193 7 149433737.639 7        42.600
C39  36749517.140 7 193120037.864 7        46.600    36749521.004 7 144213066.323 7        47.900    36749521.099 7 191364397.240 7        45.700                                                    36749510.899 7 155499219.802 7        45.100    36749519.354 7 147975084.396 7        45.400
C25  23591460.193 7 123973919.465 7        43.100    23591468.087 7  92577792.237 7        46.900    23591465.828 7 122846946.294 7        44.000                                                    23591457.774 7  99823184.938 7        44.000    23591465.195 7  94993051.555 7        42.700
C23  22695137.990 8 119263711.007 8        48.700    22695141.343 8  89060604.287 8        49.800    22695142.094 7 118179562.915 7        47.800                                                    22695129.218 7  96030547.533 7        46.200    22695138.834 7  91383916.938 7        46.700
C16                                                                                                  36964590.133 7 192484319.565 7        45.200    36964591.994 7 148841040.104 7        44.100    36964581.397 6 156409252.076 6        40.600
C13                                                                                                  38472854.751 6 200338246.826 6        39.400    38472870.811 7 154914194.191 7        42.700    38472857.701 6 162791210.452 6        39.600
C04                                                                                                  38484163.293 6 200397136.178 6        36.400    38484170.599 7 154959806.123 7        42.100    38484162.076 6 162839081.276 6        40.300
C02                                                                                                  36871207.216 6 191998053.179 6        37.500    36871212.107 7 148465091.349 7        46.100    36871204.946 6 156014134.480 6        41.000
C01                                                                                                  37322532.142 6 194348219.124 6        39.000    37322539.349 7 150282398.877 7        44.000    37322531.633 6 157923842.851 6        41.200
C06                                                                                                  36821335.979 7 191738356.615 7        43.600    36821334.314 7 148264212.935 7        44.200    36821325.571 7 155803094.553 7        43.100
R12  20678187.230 7 110459165.387 7        46.500    20678185.111 7 110459127.399 7        45.200    20678202.568 7  85912696.401 7        44.100    20678202.875 7  85912664.407 7        43.200
R11  21277344.956 7 113699678.636 7        46.800    21277343.751 7 113699626.646 7        46.000    21277352.549 7  88433057.564 7        45.000    21277353.403 7  88433071.568 7        44.900
I02  39957989.006 6 156803724.213 6        36.200
C43  24519767.415 6 128852189.066 6        41.600    24519789.213 7  96220766.504 7        43.600    24519772.026 7 127680869.936 7        42.300                                                    24519774.400 7 103751141.442 7        42.800    24519785.352 6  98731011.835 6        41.000
C34  25167789.520 6 132257651.597 6        41.100    25167809.863 6  98763886.502 6        41.100    25167792.547 6 131055304.321 6        40.400                                                    25167797.059 6 106493143.700 6        40.400    25167807.243 6 101340314.341 6        37.400
J04  35839146.537 7 188335996.477 7        44.300    35839148.833 7 188335960.471 7        47.100    35839146.002 7 188335996.869 7        46.200    35839170.767 7 146755355.400 7        47.500    35839170.354 8 140640545.533 8        49.100
J07  36400905.303 6 191288046.076 6        40.400    36400907.545 7 191288043.076 7        42.400    36400901.806 7 191288055.821 7        46.400    36400928.091 8 149055663.975 8        49.100    36400926.963 8 142845007.439 8        50.300
R13  23365161.591 6 124768722.409 6        36.400    23365159.680 5 124768706.406 5        35.000
G26  20197971.617 7 106141065.125 7        46.000                                                                                                    20197993.018 7  82707347.925 7        47.900    20197987.544 8  79261215.303 8        50.100
J02  38437193.622 7 201988815.386 7        44.300    38437195.413 8 201988592.384 8        48.600    38437191.846 7 201988822.637 7        46.900    38437213.735 8 157393922.565 8        48.700    38437211.550 8 150835837.231 8        49.600
R08  20865088.078 8 111731602.214 8        48.400    20865087.131 7 111731559.237 7        47.200    20865104.267 7  86902376.678 7        46.100    20865103.976 7  86902340.682 7        45.900
I10  36191329.690 8 142022551.896 8        49.000
G28  22205362.056 7 116689969.218 7        44.100    22205363.477 7 116689930.211 7        45.500                                                    22205380.725 7  90927260.374 7        47.300    22205380.999 8  87138610.364 8        49.200
I09  38397917.044 7 150681676.483 7        46.800
G32  22116283.128 7 116221864.918 7        46.200                                                                                                    22116310.136 7  90562500.267 7        43.200    22116308.842 7  86789033.428 7        47.300
C03                                                                                                  36042565.909 6 187683107.563 6        40.900    36042567.114 7 145128479.386 7        45.700    36042559.951 7 152507864.672 7        43.700
C59                                                                                                  36944564.244 7 192380039.831 7        42.100                                                    36944548.087 7 156324476.024 7        45.000    36944557.426 7 148760421.485 7        44.700
C32  23413305.301 7 123037701.101 7        46.400    23413319.473 8  91879010.541 8        49.000    23413308.631 7 121919240.998 7        46.100                                                    23413306.820 7  99069344.497 7        45.800    23413316.398 7  94275719.637 7        46.300
G29  24379225.048 6 128113707.556 6        40.700                                                                                                    24379247.147 6  99828873.862 6        39.900
C11                                                                                                  24969628.704 6 130023393.784 6        38.100    24969647.977 7 100542421.645 7        44.700    24969632.857 6 105654684.390 6        41.700
C60                                                                                                  37422227.918 6 194867357.977 6        41.400                                                    37422212.499 7 158345627.560 7        44.600    37422224.178 7 150683790.073 7        45.000
R02  22173711.196 7 118323188.180 7        43.900    22173710.450 7 118323194.161 7        43.700    22173727.670 7  92029168.982 7        43.300    22173726.466 7  92029126.990 7        42.500
G16  20419142.559 7 107303319.206 7        45.100                                                    20419163.826 6  83613055.828 6        36.200
R01  19197242.965 7 102620265.397 7        47.200    19197239.292 7 102620218.409 7        46.000    19197252.582 7  79815769.900 7        43.300    19197253.520 7  79815738.884 7        42.100
G27  23214530.784 6 121993183.479 6        36.100                                                                                                    23214559.885 6  95059633.626 6        36.800    23214556.964 6  91098816.084 6        40.100
G31  21232961.366 7 111579972.552 7        46.700                                                                                                    21232978.271 7  86945451.261 7        46.000
E07  25716148.999 7 135139268.822 7        44.600    25716173.450 7 100915669.693 7        46.600    25716168.705 7 103548190.898 7        46.800    25716173.367 8 102231969.588 8        48.900    25716154.214 7 109690890.458 7        45.400
E27  24884373.997 8 130768264.970 8        48.500    24884384.482 7  97651634.259 7        47.000    24884381.902 8 100199075.582 8        48.500    24884384.899 8  98925298.719 8        50.200    24884373.057 8 106142998.095 8        49.300
E21  23562369.492 8 123821085.842 8        49.800    23562384.235 8  92464001.533 8        50.500    23562380.974 8  94876100.625 8        51.100    23562384.782 8  93669822.875 8        52.500    23562371.834 8 100504068.996 8        52.700
E29  23192226.738 8 121875974.678 8        50.300    23192237.977 8  91011276.225 8        49.500    23192235.032 8  93385691.113 8        50.500    23192238.289 8  92198321.466 8        52.400    23192226.564 8  98925212.771 8        51.500
E19  24645226.926 7 129511547.906 7        43.300    24645238.776 7  96713139.608 7        42.400    24645235.832 7  99236109.360 7        43.600    24645239.001 7  97974593.285 7        45.500    24645226.001 7 105122931.273 7        43.100
> 2024 10 17  8 40  0.0000000  0 42       -.000363270000
C41  22272531.229 8 117042895.520 8        48.800    22272553.723 8  87402281.014 8        51.100    22272534.669 8 115978928.686 8        48.000                                                    22272538.334 7  94242353.486 7        47.300    22272550.884 7  89682332.044 7        46.800
C40  37103264.174 7 194979145.893 7        45.800    37103277.668 7 145601362.495 7        47.500    37103269.320 7 193206453.684 7        45.800                                                    37103265.796 7 156996046.725 7        45.000    37103273.947 7 149399511.864 7        42.200
C39  36746448.461 7 193103911.152 7        46.400    36746452.446 7 144201023.690 7        47.600    36746452.076 7 191348417.131 7        45.400                                                    36746442.078 7 155486234.681 7        45.000    36746450.519 7 147962727.597 7        44.900
C25  23600173.616 7 124019702.778 7        44.600    23600179.817 7  92611981.021 7        46.500    23600177.014 7 122892313.422 7        44.600                                                    23600170.102 7  99860049.385 7        43.800    23600177.958 7  95028132.227 7        42.900
C23  22695375.090 8 119264956.196 8        48.700    22695378.057 8  89061534.278 8        48.900    22695378.946 8 118180796.798 8        48.100                                                    22695365.946 7  96031550.263 7        45.900    22695375.816 7  91384871.170 7        46.700
C16                                                                                                  36961838.601 7 192469989.907 7        45.300    36961840.208 7 148829959.553 7        44.700    36961829.631 6 156397608.090 6        40.900
C13                                                                                                  38483055.968 6 200391374.482 6        38.200    38483073.223 7 154955275.834 7        42.500    38483060.420 6 162834381.001 6        40.300
C04                                                                                                  38483631.919 6 200394370.763 6        36.600    38483639.049 7 154957667.804 7        42.000    38483630.904 6 162836834.209 6        40.500
C02                                                                                                  36870752.801 6 191995685.942 6        37.300    36870757.378 7 148463260.941 7        46.100    36870750.433 6 156012210.987 6        41.500
C01                                                                                                  37321987.734 6 194345383.148 6        38.900    37321994.519 7 150280205.984 7        44.400    37321986.880 6 157921538.447 6        41.400
C06                                                                                                  36818985.085 7 191726112.980 7        42.900    36818983.030 7 148254745.412 7        44.900    36818974.238 7 155793145.623 7        42.900
R12  20676521.813 7 110450275.704 7        46.700    20676521.005 7 110450237.709 7        46.400    20676538.705 7  85905782.464 7        43.400    20676538.739 7  85905750.470 7        42.700
R11  21289505.592 8 113764654.790 8        48.000    21289503.489 7 113764602.808 7        46.800    21289513.480 7  88483594.599 7        45.700    21289513.143 7  88483608.588 7        45.100
I02  39954781.620 6 156791150.249 6        36.000
C43  24508101.765 6 128790894.081 6        41.800    24508124.886 7  96174994.405 7        44.200    24508109.223 7 127620132.151 7        42.800                                                    24508110.474 7 103701787.123 7        43.400    24508120.850 6  98684045.668 6        40.600
C34  25164797.830 6 132241930.854 6        41.600    25164818.085 7  98752147.561 7        42.100    25164801.330 6 131039726.561 6        39.700                                                    25164805.330 6 106480485.839 6        41.100    25164814.877 6 101328269.067 6        36.900
J04  35836371.874 7 188321416.265 7        44.900    35836373.961 7 188321380.267 7        47.400    35836371.534 7 188321416.653 7        45.600    35836396.070 7 146743994.188 7        47.200    35836395.757 8 140629657.696 8        48.600
J07  36400218.834 6 191284438.574 6        38.900    36400220.937 7 191284435.581 7        42.400    36400215.188 7 191284448.315 7        46.200    36400241.436 8 149052852.974 8        48.800    36400240.482 8 142842313.573 8        50.200
R13  23353392.140 5 124705882.876 5        35.200    23353391.805 5 124705866.903 5        33.800
G26  20203548.499 7 106170371.057 7        46.900                                                                                                    20203569.919 8  82730183.763 8        48.000    20203564.257 8  79283099.677 8        49.700
J02  38441206.563 7 202009900.944 7        45.000    38441208.097 8 202009677.951 8        48.400    38441204.536 7 202009908.195 7        47.200    38441225.716 8 157410352.907 8        48.700    38441223.955 8 150851582.983 8        49.500
R08  20884106.586 7 111833448.638 7        47.800    20884105.726 7 111833405.669 7        46.600    20884124.243 7  86981590.431 7        45.800    20884123.138 7  86981554.427 7        45.700
I10  36190321.637 8 142018595.650 8        49.200
G28  22209629.373 7 116712405.496 7        42.300    22209631.774 7 116712366.508 7        45.000                                                    22209650.748 7  90944743.137 7        47.200    22209650.358 8  87155364.646 8        49.200
I09  38397448.260 7 150679836.966 7        47.300
G32  22129713.995 7 116292449.893 7        45.300                                                                                                    22129742.278 7  90617501.429 7        44.300    22129740.436 7  86841742.838 7        46.300
C03                                                                                                  36042003.090 6 187680178.604 6        40.700    36042004.478 7 145126214.576 7        45.300    36041997.446 7 152505484.693 7        44.200
C59                                                                                                  36944120.059 7 192377726.597 7        42.000                                                    36944103.938 7 156322596.385 7        45.000    36944113.210 7 148758632.811 7        44.500
C32  23403629.045 7 122986851.133 7        46.700    23403643.030 8  91841038.162 8        48.800    23403632.380 7 121868853.322 7        47.100                                                    23403629.850 7  99028400.382 7        45.200    23403640.140 7  94236756.695 7        46.300
G29  24389498.299 6 128167691.638 6        40.900                                                                                                    24389518.605 6  99870939.526 6        36.300
C11                                                                                                  24960848.614 6 129977667.651 6        38.600    24960865.230 7 100507063.517 7        43.800    24960850.826 6 105617528.344 6        41.100
C60                                                                                                  37421771.142 6 194864980.522 6        41.500                                                    37421755.819 7 158343695.760 7        44.300    37421767.653 7 150681951.775 7        44.700
R02  22151746.518 7 118205968.151 7        44.700    22151744.317 7 118205974.166 7        43.900    22151760.381 7  91937997.940 7        42.900    22151759.563 7  91937955.928 7        42.300
G16  20411316.618 7 107262195.413 7        46.000                                                    20411337.863 5  83581011.512 5        35.800
R01  19193480.606 7 102600162.370 7        47.000    19193478.253 7 102600115.381 7        45.800    19193492.449 7  79800134.146 7        42.300    19193492.832 6  79800103.156 6        41.700
G27  23193208.835 6 121881137.233 6        36.800                                                                                                    23193237.519 6  94972325.143 6        37.100    23193235.038 6  91015145.493 6        40.900
G31  21232640.148 7 111578287.782 7        45.200                                                                                                    21232657.783 7  86944138.501 7        45.300
E07  25726930.487 7 135195926.539 7        44.400    25726955.321 7 100957978.904 7        46.000    25726950.512 7 103591603.826 7        46.800    25726954.987 8 102274830.657 8        48.400    25726935.085 7 109736878.800 7        44.900
E27  24895319.475 8 130825784.872 8        48.500    24895330.327 7  97694587.461 7        47.900    24895327.476 7 100243149.314 7        47.400    24895330.683 8  98968812.188 8        49.800    24895318.501 8 106189686.346 8        49.600
E21  23560878.526 8 123813250.311 8        50.100    23560893.294 8  92458150.484 8        50.300    23560889.590 8  94870096.916 8        51.500    23560893.595 8  93663895.495 8        52.600    23560880.423 8 100497709.090 8        52.900
E29  23190271.297 8 121865698.929 8        50.600    23190282.569 8  91003602.751 8        49.700    23190279.520 8  93377817.457 8        50.700    23190282.826 8  92190547.904 8        52.400    23190270.749 8  98916872.039 8        51.700
E19  24632420.820 7 129444253.133 7        42.100    24632432.727 7  96662887.115 7        42.100    24632429.826 7  99184545.919 7        43.800    24632433.081 7  97923685.311 7        45.300    24632419.919 7 105068308.961 7        43.000
> 2024 10 17  8 40 30.0000000  0 42       -.000365612000
C41  22280743.215 8 117086048.729 8        48.500    22280765.553 8  87434505.755 8        50.900    22280746.289 7 116021689.599 7        47.800                                                    22280750.276 7  94277100.173 7        47.200    22280762.684 7  89715397.436 7        46.800
C40  37094787.129 7 194934600.075 7        45.800    37094800.765 7 145568097.918 7        47.500    37094792.213 7 193162312.830 7        45.600                                                    37094788.958 7 156960178.779 7        45.000    37094796.630 7 149365379.487 7        42.100
C39  36743370.744 7 193087736.654 7        46.400    36743374.334 8 144188945.376 8        48.400    36743374.782 7 191332389.681 7        45.700                                                    36743364.181 7 155473211.095 7        45.200    36743372.366 7 147950334.188 7        44.900
C25  23608881.549 7 124065466.027 7        44.500    23608888.368 7  92646154.819 7        46.700    23608885.405 7 122937660.622 7        44.400                                                    23608878.366 7  99896897.693 7        44.000    23608886.554 7  95063197.539 7        43.000
C23  22695634.283 8 119266319.824 8        48.700    22695637.391 8  89062552.727 8        49.300    22695638.515 8 118182148.032 8        48.600                                                    22695625.385 7  96032648.365 7        46.100    22695635.012 7  91385916.165 7        46.700
C16                                                                                                  36959073.296 7 192455594.511 7        45.400    36959075.567 7 148818828.150 7        44.700    36959064.971 6 156385910.669 6        40.900
C13                                                                                                  38493264.011 6 200444528.000 6        38.300    38493280.596 7 154996377.450 7        42.600    38493267.875 6 162877572.544 6        40.400
C04                                                                                                  38483103.931 6 200391620.614 6        36.000    38483111.043 7 154955541.301 7        42.100    38483102.767 6 162834599.555 6        41.400
C02                                                                                                  36870302.208 6 191993337.108 6        37.300    36870306.286 7 148461444.767 7        45.900    36870299.184 6 156010302.435 6        41.800
C01                                                                                                  37321445.834 6 194342563.487 6        38.700    37321452.954 7 150278025.704 7        43.500    37321445.359 6 157919247.295 6        41.300
C06                                                                                                  36816621.054 7 191713804.518 7        44.100    36816619.159 7 148245227.743 7        44.100    36816610.295 7 155783144.000 7        42.800
R12  20674919.137 7 110441714.123 7        46.000    20674918.006 7 110441676.113 7        45.700    20674935.852 7  85899123.724 7        45.100    20674936.081 7  85899091.729 7        43.900
R11  21301667.333 7 113829650.584 7        47.300    21301666.288 7 113829598.579 7        46.500    21301676.477 7  88534146.846 7        46.400    21301676.183 7  88534160.851 7        45.500
I02  39951586.551 5 156778601.258 5        35.900
C43  24496461.845 6 128729737.997 6        41.300    24496486.672 7  96129326.037 7        43.900    24496468.520 6 127559532.027 6        41.600                                                    24496471.891 7 103652544.668 7        43.400    24496483.005 6  98637185.927 6        40.900
C34  25161877.785 6 132226583.125 6        41.400    25161898.853 7  98740687.118 7        43.200    25161881.751 6 131024518.383 6        41.500                                                    25161884.329 6 106468128.341 6        41.200    25161895.006 6 101316509.631 6        38.300
J04  35833617.139 7 188306939.336 7        44.700    35833618.973 7 188306903.321 7        47.000    35833616.284 7 188306939.729 7        46.100    35833641.315 7 146732713.444 7        47.200    35833640.747 8 140618846.995 8        48.200
J07  36399536.246 6 191280848.760 6        40.100    36399537.826 7 191280845.769 7        42.400    36399532.421 7 191280858.505 7        45.800    36399558.359 8 149050055.760 8        49.400    36399557.334 8 142839632.905 8        50.300
R13  23341685.990 6 124643350.869 6        36.300    23341682.669 5 124643334.884 5        35.600
G26  20209197.740 7 106200056.006 7        47.100                                                                                                    20209219.087 8  82753314.977 8        48.100    20209213.062 8  79305267.107 8        50.200
J02  38445220.731 7 202031002.479 7        44.700    38445223.176 8 202030779.470 8        48.300    38445219.407 7 202031009.729 7        46.000    38445241.089 8 157426795.698 8        48.000    38445239.495 8 150867340.671 8        49.200
R08  20903216.113 7 111935779.035 7        47.800    20903214.422 7 111935736.052 7        45.400    20903232.833 7  87061180.578 7        45.600    20903232.737 7  87061144.583 7        45.500
I10  36189316.931 8 142014654.684 8        48.800
G28  22213915.762 7 116734924.628 7        42.700    22213917.767 7 116734885.612 7        44.600                                                    22213934.425 7  90962290.440 7        45.200    22213935.581 8  87172180.780 8        48.800
I09  38396993.757 7 150678052.755 7        47.200
G32  22143223.514 7 116363439.075 7        45.800                                                                                                    22143251.164 7  90672817.514 7        44.100    22143249.518 7  86894754.123 7        46.900
C03                                                                                                  36041443.077 6 187677265.887 6        40.700    36041445.104 7 145123962.333 7        45.900    36041438.031 7 152503117.921 7        43.800
C59                                                                                                  36943678.988 7 192375430.356 7        42.100                                                    36943663.019 7 156320730.546 7        45.200    36943672.271 7 148756857.270 7        44.600
C32  23394037.701 7 122936451.974 7        46.000    23394051.837 7  91803402.407 7        47.900    23394041.635 7 121818912.328 7        46.200                                                    23394039.783 7  98987819.225 7        46.000    23394049.890 7  94198139.127 7        47.300
G29  24399857.066 6 128222127.366 6        38.900                                                                                                    24399878.133 6  99913357.148 6        37.300
C11                                                                                                  24952113.088 6 129932178.869 6        39.000    24952129.327 7 100471888.912 7        44.900    24952114.219 6 105580565.164 6        41.200
C60                                                                                                  37421318.315 6 194862620.051 6        41.600                                                    37421302.382 7 158341777.750 7        44.700    37421314.262 7 150680126.598 7        44.900
R02  22129840.091 7 118089087.561 7        44.600    22129840.617 7 118089093.575 7        43.800    22129856.982 7  91847090.898 7        43.700    22129856.055 7  91847048.884 7        42.600
G16  20403591.026 7 107221596.007 7        46.000                                                    20403612.079 5  83549375.815 5        35.700
R01  19189871.769 7 102580873.988 7        47.300    19189869.978 7 102580826.999 7        46.000    19189884.806 7  79785132.036 7        42.800    19189884.843 7  79785101.040 7        42.200
G27  23171897.417 6 121769152.571 6        37.600                                                                                                    23171927.711 6  94885064.593 6        38.200    23171925.003 7  90931520.861 7        42.000
G31  21232337.553 7 111576691.354 7        45.400                                                                                                    21232353.595 7  86942894.563 7        44.900
E07  25737761.742 7 135252843.117 7        45.200    25737785.629 7 101000481.445 7        45.600    25737781.716 7 103635215.148 7        46.700    25737786.004 8 102317887.601 8        48.200    25737766.685 7 109783077.226 7        45.500
E27  24906289.727 7 130883434.511 7        47.900    24906300.626 7  97737637.549 7        47.800    24906297.677 8 100287322.457 8        48.000    24906301.131 8  99012423.798 8        49.700    24906289.118 8 106236479.907 8        49.600
E21  23559448.776 8 123805735.777 8        50.800    23559463.386 8  92452539.126 8        50.400    23559459.399 8  94864339.169 8        50.700    23559463.524 8  93658210.948 8        52.500    23559449.987 8 100491609.734 8        52.400
E29  23188379.358 8 121855755.656 8        50.600    23188390.428 8  90996177.553 8        49.900    23188387.441 8  93370198.556 8        50.400    23188390.684 8  92183025.852 8        52.200    23188378.618 8  98908801.180 8        51.400
E19  24619643.207 7 129377106.650 7        42.800    24619655.356 6  96612745.356 6        41.400    24619652.328 7  99133096.104 7        43.400    24619655.453 7  97872889.531 7        45.500    24619642.104 7 105013807.019 7        42.700
> 2024 10 17  8 41  0.0000000  0 42       -.000367941000
C41  22289041.615 8 117129658.265 8        48.600    22289064.480 8  87467071.240 8        50.700    22289044.874 8 116064902.672 8        48.500                                                    22289048.842 7  94312214.288 7        46.800    22289061.504 7  89748812.462 7        47.100
C40  37086335.703 7 194890183.633 7        46.500    37086348.040 7 145534929.938 7        46.800    37086340.070 7 193118300.181 7        46.000                                                    37086336.475 7 156924415.011 7        45.200    37086344.816 7 149331346.245 7        42.300
C39  36740284.741 7 193071521.691 7        46.500    36740288.656 7 144176836.819 7        47.800    36740288.697 7 191316322.108 7        46.400                                                    36740278.455 7 155460154.904 7        44.700    36740286.758 7 147937909.755 7        45.100
C25  23617587.052 7 124111215.683 7        44.500    23617594.290 7  92680318.480 7        46.600    23617592.803 7 122982994.356 7        45.400                                                    23617584.663 7  99933735.031 7        44.600    23617592.855 7  95098252.410 7        43.200
C23  22695916.944 8 119267807.767 8        48.500    22695920.123 8  89063664.007 8        49.600    22695922.053 8 118183622.458 8        48.500                                                    22695908.457 7  96033846.565 7        45.800    22695918.073 7  91387056.405 7        47.000
C16                                                                                                  36956297.847 7 192441140.429 7        45.500    36956299.906 7 148807651.364 7        44.700    36956289.191 6 156374165.568 6        41.400
C13                                                                                                  38503477.486 6 200497713.422 6        39.000    38503494.395 7 155037503.744 7        42.600    38503481.913 6 162920790.030 6        40.400
C04                                                                                                  38482579.645 6 200388892.558 6        36.200    38482586.910 7 154953431.875 7        42.100    38482578.677 6 162832382.850 6        41.200
C02                                                                                                  36869855.614 6 191991013.770 6        37.000    36869859.925 7 148459648.305 7        46.000    36869852.874 6 156008414.609 6        41.400
C01                                                                                                  37320908.922 6 194339766.994 6        38.900    37320916.043 7 150275863.345 7        44.000    37320908.364 6 157916974.961 6        41.600
C06                                                                                                  36814246.201 7 191701438.281 7        43.700    36814244.524 7 148235665.415 7        44.900    36814235.801 7 155773095.448 7        43.000
R12  20673378.306 7 110433485.367 7        47.200    20673377.250 7 110433447.380 7        46.400    20673396.231 7  85892723.869 7        45.400    20673395.302 7  85892691.867 7        44.400
R11  21313835.899 8 113894671.330 8        48.200    21313833.975 7 113894619.341 7        46.800    21313843.802 7  88584718.540 7        46.000    21313843.787 7  88584732.536 7        45.100
I02  39948396.201 6 156766082.959 6        37.400
C43  24484853.991 7 128668730.264 7        42.200    24484877.759 7  96083768.455 7        44.300    24484857.704 6 127499078.906 6        41.600                                                    24484862.533 7 103603421.677 7        42.900    24484874.022 6  98590439.885 6        41.400
C34  25159028.699 6 132211616.741 6        40.700    25159050.437 7  98729511.436 7        42.600    25159035.264 7 131009688.084 7        42.200                                                    25159035.248 6 106456077.873 6        41.100    25159045.739 6 101305042.348 6        37.800
J04  35830883.104 7 188292572.628 7        44.700    35830885.074 7 188292536.626 7        47.000    35830882.069 7 188292573.017 7        45.800    35830907.366 7 146721518.603 7        47.700    35830906.978 8 140608118.609 8        48.900
J07  36398856.430 6 191277283.564 6        39.700    36398859.312 7 191277280.566 7        42.600    36398853.583 7 191277293.319 7        46.100    36398879.912 8 149047277.728 8        49.000    36398878.835 8 142836970.637 8        50.700
R13  23330032.497 6 124581133.252 6        37.400    23330030.879 5 124581117.270 5        35.700
G26  20214920.031 7 106230124.877 7        47.800                                                                                                    20214941.000 7  82776745.348 7        47.800    20214934.689 8  79327721.228 8        49.500
J02  38449241.558 7 202052126.609 7        45.900    38449243.146 8 202051903.608 8        48.100    38449239.679 7 202052133.853 7        45.900    38449261.063 8 157443256.087 8        48.100    38449259.355 8 150883115.220 8        49.700
R08  20922415.690 7 112038596.544 7        47.200    20922415.181 7 112038553.575 7        46.200    20922433.945 7  87141149.603 7        46.500    20922433.038 7  87141113.614 7        45.000
I10  36188317.710 7 142010734.231 7        47.900
G28  22218218.067 6 116757534.255 6        41.800    22218220.148 7 116757495.268 7        45.200                                                    22218237.987 7  90979908.233 7        46.500    22218238.081 8  87189064.500 8        49.100
I09  38396554.688 7 150676329.140 7        47.000
G32  22156811.494 7 116434838.114 7        46.300                                                                                                    22156838.684 7  90728453.036 7        43.900    22156836.000 7  86948071.406 7        46.500
C03                                                                                                  36040888.808 6 187674376.329 6        40.700    36040889.905 7 145121728.005 7        45.400    36040883.084 7 152500769.958 7        44.100
C59                                                                                                  36943242.265 6 192373157.972 6        41.800                                                    36943226.564 7 156318884.094 7        45.100    36943235.819 7 148755100.171 7        44.700
C32  23384534.696 7 122886511.948 7        46.200    23384549.276 8  91766109.524 8        49.100    23384538.580 7 121769426.286 7        45.800                                                    23384536.444 7  98947607.752 7        46.000    23384546.261 7  94159873.367 7        46.900
G29  24410301.240 5 128277020.040 5        34.100                                                                                                    24410324.193 6  99956130.741 6        36.400
C11                                                                                                  24943423.095 6 129886936.663 6        37.200    24943442.449 7 100436905.045 7        45.300    24943426.290 7 105543802.407 7        42.000
C60                                                                                                  37420869.543 6 194860283.420 6        41.700                                                    37420853.527 7 158339879.126 7        44.800    37420865.418 7 150678319.854 7        45.000
R02  22108002.416 7 117972557.042 7        44.500    22108002.534 7 117972563.048 7        44.300    22108018.872 7  91756456.126 7        43.100    22108018.393 6  91756414.123 6        41.800
G16  20395966.015 7 107181527.865 7        47.000                                                    20395986.963 6  83518154.096 6        36.000
R01  19186417.650 7 102562408.366 7        47.000    19186415.571 7 102562361.379 7        44.800    19186430.178 7  79770769.844 7        42.800    19186430.549 7  79770738.842 7        42.500
G27  23150600.376 6 121657239.438 6        37.700                                                                                                    23150630.820 6  94797859.816 6        39.200    23150628.471 7  90847949.673 7        43.200
G31  21232052.028 7 111575190.748 7        44.300                                                                                                    21232068.160 7  86941725.309 7        45.000
E07  25748642.498 7 135310024.912 7        45.100    25748666.879 7 101043182.021 7        45.300    25748663.103 7 103679029.669 7        47.000    25748667.487 8 102361145.137 8        48.500    25748648.931 7 109829490.944 7        46.600
E27  24917285.106 7 130941219.229 7        47.700    24917296.737 8  97780788.497 8        48.000    24917293.860 7 100331599.091 7        47.900    24917297.322 8  99056137.592 8        50.700    24917284.810 8 106283383.123 8        49.600
E21  23558080.546 8 123798548.308 8        50.600    23558095.592 8  92447172.008 8        50.900    23558091.669 8  94858832.015 8        50.700    23558095.648 8  93652773.810 8        52.500    23558082.267 8 100485775.857 8        52.500
E29  23186551.862 8 121846152.796 8        50.100    23186563.111 8  90989006.554 8        50.000    23186560.040 8  93362840.494 8        50.600    23186563.359 8  92175761.316 8        52.300    23186551.312 8  98901006.632 8        51.300
E19  24606895.402 7 129310116.771 7        43.000    24606907.487 6  96562720.529 6        41.700    24606904.445 7  99081766.290 7        44.400    24606907.607 7  97822212.207 7        45.600    24606894.138 7 104959432.196 7        42.700
> 2024 10 17  8 41 30.0000000  0 42       -.000370256000
C41  22297424.957 8 117173714.625 8        48.000    22297448.197 8  87499970.407 8        50.800    22297428.550 8 116108558.513 8        48.100                                                    22297432.228 7  94347688.195 7        46.900    22297445.293 7  89782569.879 7        47.200
C40  37077906.334 7 194845889.053 7        46.700    37077919.279 7 145501852.967 7        47.200    37077910.357 7 193074408.277 7        45.200                                                    37077907.250 7 156888749.358 7        45.200    37077915.457 7 149297406.376 7        42.300
C39  36737190.075 7 193055258.576 7        46.300    36737193.835 8 144164692.322 8        48.000    36737193.275 7 191300206.849 7        45.800                                                    36737183.537 7 155447059.956 7        44.800    36737191.809 7 147925448.433 7        44.900
C25  23626289.144 7 124156943.266 7        44.900    23626296.306 7  92714465.650 7        46.500    23626294.583 7 123028306.238 7        45.200                                                    23626286.184 7  99970554.610 7        44.100    23626294.062 7  95133290.391 7        42.900
C23  22696222.198 8 119269410.860 8        48.100    22696224.874 8  89064861.262 8        48.700    22696226.229 7 118185210.979 7        47.900                                                    22696213.209 7  96035137.462 7        45.900    22696223.411 7  91388284.870 7        47.200
C16                                                                                                  36953509.124 7 192426619.996 7        45.600    36953511.376 7 148796423.268 7        45.200    36953500.632 6 156362366.557 6        41.600
C13                                                                                                  38513695.973 6 200550922.305 6        38.400    38513712.957 7 155078648.180 7        43.400    38513700.174 6 162964026.568 6        41.100
C04                                                                                                  38482059.250 6 200386178.738 6        36.400    38482065.559 6 154951333.461 6        41.300    38482057.704 6 162830177.715 6        41.100
C02                                                                                                  36869412.205 6 191988707.916 6        37.500    36869417.076 7 148457865.357 7        45.900    36869409.973 6 156006540.983 6        41.600
C01                                                                                                  37320374.827 6 194336985.780 6        38.700    37320381.861 7 150273712.795 7        43.700    37320374.242 6 157914715.046 6        41.200
C06                                                                                                  36811859.312 7 191689006.477 7        43.900    36811856.924 7 148226052.386 7        45.200    36811848.487 7 155762993.610 7        43.200
R12  20671899.166 7 110425579.519 7        46.800    20671897.179 7 110425541.524 7        46.900    20671914.631 7  85886575.106 7        44.700    20671915.038 7  85886543.104 7        44.000
R11  21326006.757 7 113959706.449 7        47.800    21326004.478 7 113959654.444 7        47.000    21326014.123 7  88635301.388 7        45.100    21326013.871 7  88635315.406 7        44.700
I02  39945212.096 6 156753588.980 6        36.000
C43  24473272.069 7 128607865.336 7        42.200    24473295.606 7  96038317.538 7        44.600    24473275.844 6 127438767.289 6        41.200                                                    24473280.122 7 103554413.664 7        43.600    24473292.277 6  98543803.265 6        41.400
C34  25156249.562 6 132197025.089 6        40.200    25156272.567 7  98718615.567 7        43.300    25156257.675 6 130995229.087 6        41.500                                                    25156258.078 6 106444329.105 6        41.100    25156267.933 6 101293862.181 6        37.900
J04  35828168.954 7 188278308.193 7        45.100    35828170.945 7 188278272.183 7        46.800    35828168.185 7 188278308.586 7        45.900    35828193.379 7 146710403.456 7        47.500    35828192.787 8 140597466.591 8        48.800
J07  36398181.877 6 191273735.070 6        39.900    36398184.105 7 191273732.083 7        42.300    36398178.161 7 191273744.815 7        46.400    36398204.508 8 149044512.700 8        49.100    36398203.496 8 142834320.831 8        49.500
R13  23318438.802 6 124519221.151 6        37.700    23318436.995 6 124519205.162 6        36.300
G26  20220712.665 8 106260567.550 8        48.000                                                                                                    20220733.581 8  82800466.983 8        48.100    20220727.674 8  79350454.483 8        49.900
J02  38453263.662 7 202073265.000 7        44.700    38453265.492 8 202073042.000 8        48.300    38453261.900 7 202073272.244 7        45.400    38453283.776 8 157459727.622 8        48.400    38453281.929 8 150898900.452 8        49.700
R08  20941705.368 7 112141889.384 7        47.600    20941704.374 7 112141846.407 7        45.500    20941723.491 7  87221488.354 7        45.500    20941722.481 7  87221452.357 7        45.300
I10  36187322.311 7 142006828.315 7        46.000
G28  22222537.534 7 116780227.254 7        42.100    22222538.344 7 116780188.240 7        45.400                                                    22222557.127 7  90997591.000 7        47.800    22222557.165 8  87206010.446 8        48.700
I09  38396129.029 7 150674660.263 7        42.700
G32  22170473.143 7 116506637.584 7        45.700                                                                                                    22170502.035 7  90784400.541 7        44.400    22170498.804 7  87001687.769 7        46.500
C03                                                                                                  36040336.275 6 187671502.034 6        40.800    36040337.982 7 145119505.481 7        45.200    36040331.061 7 152498434.399 7        44.100
C59                                                                                                  36942809.198 7 192370901.495 7        42.100                                                    36942793.014 7 156317050.559 7        45.300    36942802.474 7 148753355.365 7        44.600
C32  23375117.646 7 122837024.524 7        45.800    23375131.888 8  91729154.590 8        48.600    23375121.207 7 121720388.772 7        45.200                                                    23375119.020 7  98907760.738 7        46.000    23375128.837 7  94121954.436 7        46.600
G29  24420833.185 5 128332360.03915        33.700                                                                                                    24420858.241 6  99999253.046 6        37.000
C11                                                                                                  24934781.266 6 129841935.495 6        37.700    24934799.549 7 100402107.566 7        44.900    24934785.338 7 105507235.478 7        42.900
C60                                                                                                  37420423.587 6 194857962.717 6        41.600                                                    37420407.845 7 158337993.431 7        44.600    37420419.639 7 150676525.425 7        44.700
R02  22086230.604 7 117856373.266 7        45.300    22086230.096 7 117856379.270 7        43.800    22086245.290 7  91666091.017 7        43.200    22086245.384 7  91666049.027 7        42.400
G16  20388440.664 7 107141982.985 7        46.600                                                    20388461.506 6  83487340.110 6        36.000
R01  19183116.214 7 102544758.547 7        46.300    19183113.596 7 102544711.561 7        45.400    19183127.922 7  79757042.174 7        42.900    19183128.488 7  79757011.170 7        42.000
G27  23129317.417 6 121545392.998 6        39.200                                                                                                    23129347.306 6  94710706.999 6        39.100    23129345.264 7  90764428.265 7        44.000
G31  21231781.023 7 111573777.856 7        43.900                                                                                                    21231799.725 7  86940624.414 7        45.800
E07  25759572.266 7 135367463.285 7        44.900    25759596.524 7 101086074.226 7        45.100    25759594.095 7 103723040.785 7        47.100    25759597.608 8 102404596.804 8        48.300    25759578.344 7 109876112.919 7        45.800
E27  24928305.137 8 130999129.389 8        48.000    24928316.724 7  97824033.139 7        47.900    24928313.574 8 100375971.854 8        48.700    24928317.270 8  99099946.298 8        50.100    24928304.801 8 106330388.155 8        49.800
E21  23556773.331 8 123791679.050 8        50.300    23556788.045 8  92442042.508 8        50.700    23556784.337 8  94853568.683 8        50.800    23556788.318 8  93647577.396 8        52.500    23556775.217 8 100480200.268 8        52.700
E29  23184787.951 8 121836883.345 8        50.600    23184799.270 8  90982084.527 8        49.300    23184796.351 8  93355737.905 8        50.200    23184799.506 8  92168749.016 8        52.300    23184787.578 8  98893482.711 8        51.400
E19  24594175.914 7 129243277.668 7        42.700    24594188.299 7  96512808.318 7        42.500    24594185.374 7  99030551.986 7        44.000    24594188.461 7  97771648.944 7        45.300    24594174.954 7 104905179.739 7        42.800
> 2024 10 17  8 42  0.0000000  0 44       -.000372561000
