     3.04           OBSERVATION DATA    M (MIXED)           RINEX VERSION / TYPE
R12 6.13            Receiver Operator   20241017 040220 UTC PGM / RUN BY / DATE
A                                                           MARKER NAME
GEODETIC                                                    MARKER TYPE         
OBS                 AGENCY                                  OBSERVER / AGENCY   
6005F01017          TRIMBLE R12         6.13                REC # / TYPE / VERS
                    TRMR12          NONE                    ANT # / TYPE
 -2418118.2297  5385736.9100  2405926.3176                  APPROX POSITION XYZ
        1.7500        0.0000        0.0000                  ANTENNA: DELTA H/E/N
G   12 C1C L1C S1C C1X L1X S1X C2X L2X S2X C5X L5X S5X      SYS / # / OBS TYPES
R   12 C1C L1C S1C C1P L1P S1P C2C L2C S2C C2P L2P S2P      SYS / # / OBS TYPES
E   15 C1X L1X S1X C5X L5X S5X C7X L7X S7X C8X L8X S8X C6X  SYS / # / OBS TYPES
       L6X S6X                                              SYS / # / OBS TYPES
J   15 C1C L1C S1C C1X L1X S1X C1Z L1Z S1Z C2X L2X S2X C5X  SYS / # / OBS TYPES
       L5X S5X                                              SYS / # / OBS TYPES
C   18 C1X L1X S1X C5X L5X S5X C2I L2I S2I C7I L7I S7I C6I  SYS / # / OBS TYPES
       L6I S6I C7D L7D S7D                                  SYS / # / OBS TYPES
I    3 C5A L5A S5A                                          SYS / # / OBS TYPES
    30.000                                                  INTERVAL
  2024    10    17     4     2   30.0000000     GPS         TIME OF FIRST OBS
G L2X -0.25000                                              SYS / PHASE SHIFT   
R L1P  0.25000                                              SYS / PHASE SHIFT   
R L2C -0.25000                                              SYS / PHASE SHIFT   
J L2X  0.25000                                              SYS / PHASE SHIFT   
DBHZ                                                        SIGNAL STRENGTH UNIT
  7 R06 -4 R07  5 R08  6 R10 -7 R11  0 R16 -1 R22 -3        GLONASS SLOT / FRQ #
                                                            GLONASS COD/PHS/BIS 
                                                            END OF HEADER       
> 2024 10 17  4  2 30.0000000  0 43       0.000000000000
C59                                                                                                  36924272.939 7 192274311.49017        42.100                                                    36924257.635 7 156238534.96117        44.500    36924266.274 7 148678629.62617        43.900
C60                                                                                                  37413275.827 6 194820665.08016        41.300                                                    37413257.521 7 158307661.24417        43.900    37413267.880 7 150647646.24117        43.600
C26  24229372.237 7 127326105.92117        42.900    24229382.453 7  95081221.45717        46.000    24229374.441 7 126168649.08217        43.600                                                    24229371.012 7 102522331.09017        43.700    24229378.697 7  97561581.55617        42.100
C24  21540732.027 8 113197333.03218        48.700    21540735.761 8  84530503.31218        49.500    21540734.016 8 112168270.70618        48.000                                                    21540725.954 7  91145891.08717        46.000    21540732.825 7  86735628.47917        47.200
C39  36147363.803 8 189955651.49618        48.400    36147365.582 8 141849985.93518        49.000    36147365.710 7 188228784.87017        47.700                                                    36147355.638 7 152951307.99917        45.900    36147362.190 7 145550412.76417        43.900
C43  25509415.920 6 134052558.85116        39.700    25509439.274 6 100104297.92116        39.300    25509419.015 6 132834067.36816        37.900                                                    25509422.940 6 107938523.66416        38.700    25509434.691 6 102715692.47516        37.100
C38  35880459.664 7 188553087.87617        47.800    35880465.857 8 140802583.42518        49.400    35880461.388 7 186838925.06517        45.600                                                    35880454.385 7 151821934.64117        45.700    35880462.328 7 144475685.52917        44.700
C16                                                                                                  36213537.327 7 188573362.96917        47.400    36213539.384 7 145816881.15317        45.300    36213529.652 6 153231264.60016        41.700
C14                                                                                                  22604803.796 7 117709122.87617        46.400    22604802.401 8  91020216.58618        48.000    22604793.993 7  95648389.63217        45.600
C13                                                                                                  35950194.858 7 187202069.87117        47.800    35950197.708 7 144756511.55517        43.400    35950189.225 7 152116980.31517        44.600
C06                                                                                                  36223665.081 7 188626102.26517        44.500    36223663.124 7 145857652.02317        45.700    36223654.840 7 153274168.74317        42.800
C05                                                                                                  39225658.420 5 204258493.35715        32.800    39225665.469 6 157945492.41216        38.300    39225657.326 6 165976587.59816        36.000
C04                                                                                                  38460205.764 6 200272266.64816        36.700    38460213.323 7 154863224.71117        42.300    38460205.027 6 162737598.07216        40.900
C03                                                                                                  36058567.142 6 187766366.22916        40.600    36058566.923 7 145192835.97617        44.000    36058560.681 7 152575503.44417        42.900
C02                                                                                                  36895164.326 6 192122729.97216        36.500    36895164.041 7 148561464.48317        44.300    36895159.006 6 156115424.01216        40.800
C01                                                                                                  37331477.638 6 194394717.26916        39.400    37331482.705 7 150318316.19517        44.600    37331475.719 6 157961601.49416        40.900
R16  22353216.059 7 119406821.24117        44.600    22353214.101 7 119406816.24917        42.200    22353231.064 7  92871997.38417        42.500    22353231.705 7  92871976.41717        42.800
R06  21400623.118 5 114197735.46515        35.400    21400621.939 5 114197771.48515        34.000
I10  36501396.401 7 143239235.22717        47.900
G28  22938059.848 7 120540361.80717        42.900    22938058.601 7 120540368.80117        44.000    22938083.482 7  93927645.92717        45.600    22938086.903 7  90014029.39117        46.700
J02  37105450.626 6 194990459.52916        41.100    37105449.337 7 194990501.52817        44.900    37105446.336 6 194990510.84016        41.600    37105477.284 7 151940710.81117        45.800    37105478.587 7 145609843.50717        47.900
G18  22737378.202 6 119485535.99816        40.600    22737376.423 7 119485438.99717        43.900    22737401.358 7  93105524.07117        45.500    22737404.925 7  89226136.14717        46.600
G23  20158733.792 8 105934817.80818        48.100    20158732.119 8 105935052.79718        49.100    20158746.449 8  82546822.00518        50.700    20158747.010 8  79107382.79318        52.200
J03  36214676.541 6 190309275.20816        40.200    36214675.356 7 190309321.20517        43.400    36214672.498 6 190309347.94016        40.600    36214702.159 7 148293008.67817        42.800    36214703.245 7 142114123.66317        45.800
J07  36502215.454 6 191820354.70316        39.200    36502214.300 7 191820405.70517        42.600    36502208.993 7 191820363.44717        47.000    36502233.249 8 149470489.42318        49.300    36502232.013 8 143242539.45718        49.300
J04  38653737.833 7 203126697.33117        43.600    38653736.860 7 203126813.32817        47.100    38653734.099 7 203126778.70117        45.100    38653752.573 8 158280678.13718        48.300    38653751.047 8 151685638.93318        49.300
G10  21774232.928 7 114424360.34217        47.500                                                    21774248.600 7  89161905.86817        46.300    21774242.847 7  85446826.29017        46.800
C25  23598533.677 7 124011154.01817        42.700    23598549.516 7  92605791.20017        43.500    23598536.327 7 122883788.23917        43.700                                                    23598536.113 7  99853162.41717        43.000    23598545.463 6  95021586.40516        41.600
C33  23562353.022 7 123821162.94117        45.800    23562384.200 7  92463833.42217        46.500    23562355.072 7 122695375.62517        43.800                                                    23562361.385 7  99700071.66617        44.100    23562381.054 7  94875925.41317        43.800
C42  22994803.976 7 120838449.47917        46.400    22994822.021 8  90236543.22718        49.300    22994805.056 7 119739922.76917        46.100                                                    22994809.158 7  97298488.26017        45.600    22994818.617 7  92590529.38117        45.200
I03  41468667.421 7 162731889.79317        47.100
G12  22569714.814 6 118604741.73216        41.600                                                    22569736.275 7  92419537.37317        43.800
R07  21324596.753 7 114152261.79517        46.800    21324595.618 7 114152394.81817        45.000    21324607.407 7  88785258.35417        43.000    21324606.614 7  88785112.35717        42.400
R22  21876417.624 7 116777752.59117        44.200    21876417.661 7 116777774.59817        43.000    21876434.390 6  90827203.60316        41.900    21876434.802 6  90827194.60916        41.900
R10  20897045.461 7 111393047.70017        44.600    20897044.195 7 111393044.69917        43.500
G25  21976369.289 7 115486386.72117        42.800                                                    21976395.680 7  89989649.77917        44.300    21976394.745 8  86240104.65418        48.200
G24  22578573.567 6 118651110.08616        41.400                                                    22578592.036 7  92455334.06217        43.600    22578590.781 8  88603033.48518        48.100
E26  24908180.728 7 130893344.61017        46.600    24908192.012 7  97745053.62117        45.600    24908187.983 7 100294907.07417        46.800    24908191.573 8  99019986.64518        49.100    24908179.979 8 106244569.94218        49.200
E07  24554554.780 7 129035032.59717        46.500    24554565.155 7  96357360.77417        46.900    24554561.925 7  98871017.20317        47.300    24554565.303 8  97614196.28618        49.800    24554551.272 8 104736200.79818        50.100
E13  24843269.363 7 130552117.26917        46.500    24843288.892 7  97490212.98517        46.800    24843284.216 7 100033429.24617        47.000    24843288.513 8  98761827.92118        49.600    24843271.138 8 105967582.44018        48.000
E02  26866781.078 6 141185938.48216        39.200    26866803.467 7 105431157.77417        45.900    26866797.937 7 108181513.88117        44.900    26866802.942 8 106806345.13618        48.200    26866787.379 7 114598980.89017        44.700
E30  25529518.627 7 134158586.80817        46.000    25529539.800 7 100183489.50617        46.100    25529535.608 7 102796945.86917        47.600    25529539.657 8 101490122.49018        49.100    25529522.514 8 108894976.03418        48.600
E08  25961084.016 7 136426335.11317        42.600    25961097.825 7 101876816.00517        45.300    25961094.439 7 104534460.32717        47.000    25961097.835 8 103205646.46818        49.100    25961083.981 8 110735621.84618        48.100
> 2024 10 17  4  3  0.0000000  0 43       0.000000000000
C59                                                                                                  36924423.835 6 192275097.040 6        41.600                                                    36924408.549 7 156239173.163 7        45.100    36924417.173 7 148679236.918 7        43.700
C60                                                                                                  37413396.252 6 194821290.210 6        41.000                                                    37413377.757 7 158308169.111 7        43.600    37413388.047 7 150648129.509 7        43.200
C26  24242774.869 7 127396537.758 7        42.300    24242785.148 7  95133816.451 7        45.600    24242776.548 6 126238440.624 6        41.400                                                    24242774.188 7 102579042.266 7        43.900    24242781.652 7  97615548.603 7        42.000
C24  21538484.554 8 113185522.768 8        48.500    21538488.367 8  84521683.960 8        48.900    21538486.622 8 112156567.812 8        48.000                                                    21538478.480 7  91136381.520 7        46.000    21538485.600 7  86726579.046 7        47.200
C39  36149715.009 8 189968006.262 8        48.800    36149716.677 8 141859211.800 8        48.800    36149716.774 7 188241027.315 7        47.700                                                    36149706.772 7 152961255.919 7        45.600    36149713.352 7 145559879.319 7        43.800
C43  25520947.662 6 134113156.754 6        39.900    25520970.352 6 100149549.695 6        38.600    25520950.732 6 132894114.416 6        38.100                                                    25520954.251 6 107987316.875 6        38.600    25520965.509 5 102762124.721 5        35.200
C38  35880597.123 8 188553809.326 8        48.000    35880603.311 8 140803122.029 8        49.200    35880598.757 7 186839639.976 7        46.100                                                    35880591.817 7 151822515.464 7        45.700    35880599.836 7 144476238.210 7        44.900
C16                                                                                                  36215371.524 7 188582914.074 7        47.300    36215373.574 7 145824266.614 7        44.100    36215363.844 7 153239025.603 7        42.300
C14                                                                                                  22600437.236 7 117686385.132 7        46.100    22600436.097 7  91002634.251 7        47.900    22600427.451 7  95629913.298 7        45.500
C13                                                                                                  35946806.450 7 187184424.120 7        47.200    35946808.784 7 144742866.641 7        43.400    35946800.620 7 152102641.619 7        44.200
C06                                                                                                  36224267.950 7 188629239.857 7        45.700    36224265.677 7 145860078.158 7        46.200    36224257.418 7 153276718.246 7        42.700
C05                                                                                                  39225564.679 5 204258005.22415        32.500    39225572.261 6 157945114.80516        37.800    39225563.681 5 165976190.82615        35.900
C04                                                                                                  38460446.583 6 200273519.311 6        36.600    38460454.323 7 154864193.169 7        42.800    38460445.829 6 162738615.829 6        40.800
C03                                                                                                  36058715.261 6 187767135.939 6        40.900    36058714.701 7 145193431.048 7        43.300    36058708.621 7 152576128.796 7        42.700
C02                                                                                                  36895191.351 6 192122870.172 6        37.000    36895191.111 7 148561572.790 7        43.700    36895185.994 6 156115537.844 6        41.100
C01                                                                                                  37331628.628 6 194395504.614 6        39.400    37331634.282 7 150318924.865 7        44.500    37331626.868 6 157962241.154 6        40.900
R16  22371154.383 7 119502643.676 7        42.800    22371152.658 7 119502638.631 7        42.100    22371169.471 6  92946525.733 6        41.500    22371170.060 6  92946504.746 6        41.300
R06  21402173.323 5 114206001.065 5        35.300    21402170.205 5 114206037.124 5        33.700
I10  36501072.565 7 143237963.138 7        47.300
G28  22923013.962 7 120461295.593 7        42.000    22923013.094 7 120461302.606 7        44.100    22923037.278 7  93866036.094 7        44.900    22923040.734 7  89954986.678 7        46.300
J02  37105243.785 7 194989375.119 7        42.100    37105242.538 7 194989417.131 7        45.600    37105239.691 6 194989426.435 6        41.700    37105270.934 7 151939865.874 7        44.900    37105271.914 7 145609033.798 7        47.800
G18  22755492.017 6 119580723.874 6        41.800    22755490.146 7 119580626.882 7        43.900    22755515.441 7  93179696.263 7        43.700    22755518.702 7  89297217.790 7        45.400
G23  20156772.629 8 105924511.619 8        48.200    20156770.956 8 105924746.613 8        49.100    20156785.294 8  82538791.084 8        50.700    20156786.123 8  79099686.442 8        52.300
J03  36217094.384 6 190321981.184 6        40.400    36217093.374 7 190322027.197 7        42.600    36217089.584 6 190322053.916 6        40.400    36217120.088 7 148302909.469 7        43.000    36217121.242 7 142123611.911 7        46.500
J07  36502215.970 6 191820355.689 6        40.500    36502214.425 7 191820406.686 7        42.900    36502209.088 7 191820364.437 7        47.700    36502233.737 8 149470490.078 8        49.600    36502232.346 8 143242540.057 8        49.500
J04  38648727.140 7 203100364.523 7        43.600    38648725.667 7 203100480.522 7        47.200    38648723.640 7 203100445.893 7        45.500    38648741.814 8 158260158.956 8        48.100    38648740.042 8 151665974.702 8        49.100
G10  21759291.175 7 114345840.530 7        46.100                                                    21759306.360 7  89100721.649 7        45.400    21759300.965 7  85388191.410 7        47.200
C25  23581959.655 7 123924058.835 7        43.000    23581976.019 7  92540752.779 7        44.600    23581962.657 7 122797484.869 7        43.400                                                    23581962.241 7  99783033.999 7        43.800    23581971.708 7  94954851.326 7        42.100
C33  23553155.177 7 123772825.020 7        45.500    23553185.970 7  92427736.918 7        46.600    23553156.944 7 122647477.136 7        43.900                                                    23553162.992 7  99661150.224 7        44.400    23553182.561 7  94838887.271 7        43.600
C42  22995999.613 7 120844729.474 7        47.300    22996017.442 8  90241232.629 8        49.400    22996000.673 7 119746145.650 7        45.900                                                    22996004.414 7  97303544.721 7        45.700    22996013.699 7  92595341.135 7        45.200
I03  41458508.834 7 162692025.009 7        47.300
G12  22564781.572 6 118578817.907 6        41.800                                                    22564803.457 7  92399337.093 7        44.000
R07  21317076.049 7 114112002.081 7        47.600    21317075.404 7 114112135.090 7        46.100    21317086.024 7  88753945.214 7        42.800    21317085.911 7  88753799.216 7        42.700
R22  21885583.789 7 116826678.782 7        45.400    21885583.831 7 116826700.777 7        43.600    21885600.350 7  90865256.879 7        42.300    21885600.926 7  90865247.884 7        42.500
R10  20877058.545 7 111286508.480 7        44.600    20877057.686 7 111286505.486 7        42.700
G25  21961419.058 7 115407828.477 7        43.900                                                    21961446.058 7  89928435.720 7        43.200    21961445.751 7  86181441.221 7        47.300
G24  22596877.742 6 118747296.423 6        39.600                                                    22596896.927 6  92530284.192 6        41.300    22596894.604 7  88674860.637 7        47.800
E26  24907775.407 7 130891212.950 7        47.600    24907786.406 7  97743461.597 7        45.600    24907782.168 7 100293273.527 7        46.600    24907786.032 8  99018373.864 8        49.100    24907774.532 8 106242839.563 8        49.900
E07  24554526.608 7 129034886.564 7        47.300    24554537.355 7  96357251.682 7        47.300    24554534.058 7  98870905.277 7        47.600    24554537.520 8  97614085.776 8        50.300    24554523.866 8 104736082.233 8        50.400
E13  24856612.947 7 130622235.772 7        46.000    24856632.816 7  97542573.792 7        47.100    24856627.594 7 100087156.056 7        46.600    24856632.186 8  98814871.722 8        49.800    24856614.725 8 106024496.522 8        48.200
E02  26870027.498 6 141202996.602 6        41.600    26870049.303 7 105443895.959 7        45.200    26870044.426 7 108194584.355 7        45.900    26870048.962 8 106819249.456 8        48.600    26870033.363 7 114612826.775 7        45.300
E30  25520596.944 7 134111707.233 7        46.400    25520618.954 7 100148482.158 7        45.900    25520614.721 7 102761025.280 7        47.900    25520618.668 8 101454658.513 8        48.900    25520601.321 8 108856924.524 8        48.600
E08  25966922.719 7 136457014.342 7        43.800    25966935.926 7 101899725.566 7        45.200    25966932.346 7 104557967.569 7        46.400    25966936.152 8 103228854.873 8        48.600    25966922.305 8 110760523.632 8        48.400
> 2024 10 17  4  3 30.0000000  0 43       0.000000000000
C59                                                                                                  36924575.487 7 192275884.779 7        42.000                                                    36924559.995 7 156239813.156 7        44.100    36924568.609 7 148679845.904 7        43.800
C60                                                                                                  37413516.529 6 194821917.584 6        40.900                                                    37413498.340 7 158308678.805 7        43.800    37413508.677 7 150648614.511 7        43.700
C26  24256236.513 6 127467277.491 6        41.400    24256246.639 7  95186641.343 7        45.900    24256238.861 7 126308537.256 7        42.600                                                    24256235.475 7 102636001.345 7        44.100    24256243.141 7  97669751.560 7        42.100
C24  21536329.328 8 113174197.102 8        48.400    21536333.238 8  84513226.495 8        49.300    21536331.284 8 112145345.131 8        48.700                                                    21536323.414 7  91127262.167 7        45.800    21536330.386 7  86717900.958 7        47.300
C39  36152078.599 8 189980426.850 8        48.800    36152080.421 8 141868486.811 8        48.800    36152080.378 7 188253334.977 7        47.300                                                    36152070.288 7 152971256.828 7        45.600    36152076.904 7 145569396.301 7        43.900
C43  25532463.888 6 134173676.454 6        40.600    25532487.044 6 100194743.057 6        38.100    25532466.784 6 132954083.920 6        38.000                                                    25532470.950 6 108036047.039 6        39.100    25532481.934 5 102808497.003 5        35.100
C38  35880762.139 7 188554674.478 7        47.700    35880768.193 8 140803767.925 8        49.000    35880763.605 7 186840497.244 7        46.000                                                    35880756.754 7 151823211.945 7        46.000    35880764.680 7 144476900.965 7        45.100
C16                                                                                                  36217222.034 7 188592549.231 7        47.300    36217223.932 7 145831717.050 7        44.200    36217214.418 6 153246854.894 6        41.900
C14                                                                                                  22596087.983 7 117663739.060 7        46.000    22596087.437 8  90985122.804 8        48.100    22596078.694 7  95611511.459 7        45.300
C13                                                                                                  35943438.555 8 187166887.422 8        48.100    35943441.111 7 144729306.074 7        43.200    35943432.927 7 152088391.543 7        43.500
C06                                                                                                  36224889.354 7 188632475.058 7        44.300    36224887.074 7 145862579.764 7        45.400    36224878.749 7 153279347.069 7        42.400
C05                                                                                                  39225471.483 5 204257518.01315        32.900    39225478.709 6 157944737.92216        37.300    39225470.310 5 165975794.81615        35.700
C04                                                                                                  38460687.331 6 200274772.869 6        36.500    38460695.135 7 154865162.287 7        42.600    38460686.841 6 162739634.274 6        40.300
C03                                                                                                  36058863.105 6 187767906.489 6        40.800    36058862.960 7 145194026.764 7        43.800    36058856.591 7 152576754.840 7        42.500
C02                                                                                                  36895218.739 6 192123012.791 6        36.400    36895218.603 7 148561682.954 7        43.900    36895213.704 6 156115653.643 6        40.400
C01                                                                                                  37331780.098 6 194396293.110 6        39.500    37331785.733 7 150319534.413 7        44.600    37331778.554 6 157962881.764 6        40.700
R16  22389184.445 7 119598952.060 7        43.300    22389182.434 7 119598947.120 7        42.600    22389198.579 7  93021432.192 7        42.200    22389199.153 6  93021411.173 6        39.300
R06  21403748.848 5 114214411.538 5        35.100    21403746.217 5 114214447.567 5        33.700
I10  36500748.346 7 143236688.868 7        47.600
G28  22908029.519 6 120382548.859 6        41.600    22908028.092 7 120382555.850 7        44.500    22908052.248 7  93804675.155 7        44.900    22908055.302 7  89896182.493 7        46.400
J02  37105043.802 6 194988324.487 6        41.500    37105043.205 7 194988366.469 7        45.700    37105039.917 7 194988375.795 7        43.400    37105070.840 7 151939047.229 7        45.700    37105071.973 7 145608249.276 7        47.800
G18  22773635.890 6 119676069.708 6        40.900    22773634.097 7 119675972.718 7        43.400    22773659.284 7  93253991.534 7        43.500    22773662.413 7  89368417.397 7        45.700
G23  20154900.895 8 105914677.850 8        48.000    20154899.558 8 105914912.843 8        49.400    20154914.008 8  82531128.255 8        49.700    20154915.011 8  79092342.876 8        52.600
J03  36219521.629 6 190334736.156 6        40.600    36219520.453 7 190334782.158 7        43.000    36219517.367 6 190334808.885 6        39.100    36219546.784 7 148312848.398 7        42.900    36219548.405 7 142133136.713 7        46.600
J07  36502216.254 6 191820356.849 6        40.500    36502214.786 7 191820407.844 7        42.900    36502209.722 7 191820365.594 7        47.400    36502233.961 8 149470490.835 8        49.000    36502232.839 8 143242540.766 8        49.200
J04  38643705.997 7 203073978.323 7        43.000    38643704.686 7 203074094.311 7        47.200    38643702.717 7 203074059.700 7        45.700    38643720.982 7 158239598.176 7        47.600    38643719.156 8 151646270.595 8        49.500
G10  21744385.392 7 114267510.523 7        47.500                                                    21744400.396 7  89039685.307 7        45.000    21744395.141 7  85329698.246 7        47.300
C25  23565427.592 7 123837181.926 7        43.800    23565443.707 7  92475877.355 7        45.000    23565429.921 7 122711397.748 7        42.800                                                    23565430.007 7  99713081.300 7        43.100    23565439.428 7  94888283.472 7        42.500
C33  23543956.993 7 123724488.857 7        45.900    23543988.352 7  92391641.743 7        46.800    23543959.059 7 122599580.398 7        45.500                                                    23543964.933 7  99622230.193 7        44.300    23543984.670 7  94801850.483 7        43.500
C42  22997224.089 8 120851165.249 8        48.000    22997242.297 8  90246038.365 8        49.300    22997225.159 7 119752522.929 7        46.000                                                    22997229.309 7  97308726.631 7        45.700    22997238.522 7  92600272.266 7        45.200
I03  41448351.630 7 162652164.396 7        47.400
G12  22559937.920 6 118553366.519 6        41.400                                                    22559960.143 7  92379504.947 7        43.000
R07  21309548.152 7 114071704.241 7        47.800    21309547.810 7 114071837.242 7        45.900    21309558.812 7  88722602.442 7        43.700    21309558.166 7  88722456.436 7        42.400
R22  21894847.139 7 116876126.089 7        44.800    21894847.363 7 116876148.096 7        44.100    21894863.973 7  90903715.473 7        42.500    21894864.416 7  90903706.476 7        42.800
R10  20857152.668 7 111180398.249 7        43.500    20857150.858 7 111180395.262 7        42.600
G25  21946519.604 7 115329528.647 7        43.100                                                    21946546.153 7  89867423.065 7        43.200    21946545.168 7  86122970.801 7        47.600
G24  22615207.475 6 118843622.494 6        40.400                                                    22615227.053 7  92605343.217 7        43.100    22615224.910 7  88746792.143 7        47.600
E26  24907449.389 7 130889500.453 7        47.200    24907460.621 7  97742182.567 7        45.300    24907456.772 7 100291961.154 7        47.400    24907460.342 8  99017078.157 8        49.400    24907448.763 8 106241449.409 8        50.000
E07  24554494.227 7 129034716.442 7        46.900    24554505.288 7  96357124.619 7        46.900    24554501.304 7  98870774.900 7        46.800    24554505.195 8  97613957.055 8        49.600    24554491.225 8 104735944.136 8        50.200
E13  24869997.306 7 130692571.916 7        45.300    24870017.674 7  97595097.101 7        46.800    24870013.110 7 100141049.606 7        47.200    24870017.179 8  98868080.157 8        49.800    24869999.956 8 106081587.234 8        48.800
E02  26873345.036 6 141220427.594 6        41.900    26873365.977 7 105456912.617 7        44.400    26873361.275 7 108207940.560 7        45.700    26873365.721 8 106832435.896 8        48.000    26873351.102 7 114626975.294 7        46.000
E30  25511724.722 7 134065080.968 7        46.200    25511746.140 7 100113663.974 7        45.700    25511741.729 7 102725298.770 7        47.600    25511745.820 8 101419386.169 8        49.900    25511728.494 8 108819078.619 8        48.500
E08  25972749.136 7 136487634.706 7        43.200    25972763.012 7 101922591.170 7        45.300    25972759.011 7 104581429.701 7        46.600    25972763.297 8 103252018.742 8        49.600    25972749.527 8 110785377.662 8        48.400
> 2024 10 17  4  4  0.0000000  0 42       0.000000000000
C59                                                                                                  36924727.172 7 192276674.604 7        42.100                                                    36924711.951 7 156240454.841 7        45.000    36924720.432 7 148680456.507 7        43.400
C60                                                                                                  37413637.775 6 194822547.110 6        41.300                                                    37413619.301 7 158309190.236 7        44.300    37413629.649 7 150649101.174 7        43.200
C26  24269755.986 6 127538322.967 6        41.300    24269766.564 7  95239694.563 7        46.200    24269758.059 7 126378936.855 7        42.300                                                    24269755.229 7 102693206.626 7        43.900    24269763.079 7  97724188.797 7        42.000
C24  21534266.139 8 113163356.244 8        48.200    21534269.946 8  84505131.044 8        48.900    21534268.278 8 112134602.844 8        48.400                                                    21534260.480 7  91118533.155 7        45.900    21534267.385 7  86709594.327 7        47.300
C39  36154454.644 8 189992912.638 8        49.100    36154456.668 8 141877810.520 8        48.800    36154456.313 7 188265707.259 7        47.400                                                    36154446.414 7 152981310.266 7        46.000    36154452.893 7 145578963.267 7        43.300
C38  35880954.004 7 188555683.555 7        47.600    35880960.315 8 140804521.304 8        48.900    35880955.356 7 186841497.165 7        46.500                                                    35880949.132 7 151824024.342 7        45.600    35880956.967 7 144477674.027 7        45.300
C16                                                                                                  36219088.402 8 188602267.860 8        48.000    36219090.114 7 145839232.049 7        44.700    36219080.931 7 153254752.028 7        42.600
C14                                                                                                  22591757.175 7 117641185.941 7        45.600    22591756.027 7  90967683.238 7        47.500    22591747.750 7  95593185.152 7        45.800
C13                                                                                                  35940091.905 7 187149460.208 7        47.000    35940094.554 7 144715830.150 7        43.200    35940086.300 7 152074230.440 7        43.900
C06                                                                                                  36225529.386 7 188635807.347 7        45.100    36225526.956 7 145865156.430 7        46.200    36225518.859 7 153282054.761 7        42.700
C05                                                                                                  39225377.937 5 204257031.58915        33.100    39225385.499 6 157944361.65816        38.000    39225377.121 5 165975399.44615        35.600
C04                                                                                                  38460928.283 6 200276027.328 6        36.900    38460936.204 7 154866132.120 7        42.300    38460927.803 6 162740653.465 6        41.100
C03                                                                                                  36059011.462 6 187768677.845 6        40.900    36059011.233 7 145194623.108 7        43.900    36059004.883 7 152577381.519 7        43.400
C02                                                                                                  36895246.530 6 192123157.746 6        37.000    36895246.390 7 148561794.935 7        43.700    36895241.606 6 156115771.338 6        41.300
C01                                                                                                  37331931.911 6 194397082.704 6        39.400    37331937.576 7 150320144.816 7        44.600    37331930.315 6 157963523.222 6        41.100
R16  22407301.291 7 119695742.649 7        46.500    22407301.842 7 119695737.663 7        43.100    22407318.931 7  93096713.524 7        43.000    22407319.162 6  93096692.506 6        39.800
R06  21405352.343 5 114222968.429 5        33.500    21405350.078 5 114223004.453 5        33.300
I10  36500422.907 7 143235412.327 7        47.600
G28  22893104.820 6 120304122.648 6        41.200    22893103.371 7 120304129.646 7        43.200    22893127.876 7  93743564.042 7        45.700    22893131.349 7  89837617.696 7        46.200
J02  37104850.713 6 194987307.784 6        40.800    37104849.545 7 194987349.804 7        45.600    37104846.594 6 194987359.093 6        41.200    37104877.044 7 151938255.073 7        46.000    37104878.550 7 145607490.123 7        47.600
G18  22791809.192 6 119771570.152 6        40.100    22791807.003 7 119771473.133 7        43.300    22791832.534 7  93328407.283 7        44.600    22791835.297 7  89439732.463 7        45.100
G23  20153120.205 8 105905318.041 8        48.000    20153118.776 8 105905553.044 8        49.100    20153132.968 8  82523834.748 8        50.700    20153133.905 8  79085353.249 8        52.700
J03  36221957.941 6 190347539.634 6        39.500    36221957.100 6 190347585.629 6        41.900    36221953.607 6 190347612.355 6        39.500    36221983.577 7 148322825.153 7        43.800    36221984.878 7 142142697.772 7        46.600
J07  36502216.653 6 191820358.044 6        40.900    36502215.139 7 191820409.043 7        42.900    36502209.786 7 191820366.793 7        47.500    36502234.023 8 149470491.662 8        49.000    36502233.375 8 143242541.518 8        49.500
J04  38638674.897 7 203047538.850 7        43.100    38638673.696 7 203047654.844 7        47.200    38638671.264 7 203047620.220 7        46.400    38638689.572 8 158218995.876 8        48.000    38638688.118 8 151626526.710 8        49.200
G10  21729516.742 7 114189372.943 7        47.400                                                    21729531.308 7  88978798.911 7        46.200    21729526.163 7  85271348.785 7        47.000
C25  23548937.260 7 123750525.223 7        43.300    23548953.354 7  92411166.373 7        44.600    23548939.950 7 122625528.840 7        42.500                                                    23548939.582 7  99643305.906 7        42.800    23548949.101 7  94821884.355 7        42.500
C33  23534759.086 7 123676155.418 7        45.700    23534790.562 7  92355548.618 7        46.300    23534761.096 7 122551686.390 7        45.300                                                    23534767.679 7  99583312.378 7        44.800    23534787.007 7  94764815.809 7        43.400
C42  22998478.263 7 120857758.028 7        47.100    22998497.081 8  90250961.332 8        49.100    22998479.961 7 119759055.748 7        45.800                                                    22998483.948 7  97314034.922 7        45.300    22998493.291 7  92605323.662 7        44.800
I03  41438194.860 7 162612307.817 7        47.100
G12  22555185.007 7 118528388.765 7        43.500                                                    22555207.037 7  92360041.837 7        43.800
R07  21302013.488 8 114031370.055 8        48.000    21302013.054 7 114031503.064 7        46.100    21302024.622 7  88691231.394 7        44.300    21302023.554 7  88691085.388 7        44.000
R22  21904207.172 7 116926090.874 7        44.700    21904207.141 7 116926112.893 7        43.700    21904224.221 7  90942576.565 7        43.900    21904224.822 7  90942567.546 7        44.100
R10  20837327.132 7 111074721.317 7        43.900    20837325.743 7 111074718.323 7        42.400
G25  21931669.025 7 115251490.503 7        43.000                                                    21931695.635 7  89806614.309 7        44.400    21931694.984 7  86064695.767 7        47.800
G24  22633564.117 6 118940085.487 6        41.100                                                    22633583.892 7  92680508.939 7        42.300    22633581.262 7  88818825.921 7        46.700
E26  24907203.759 7 130888206.782 7        47.400    24907214.670 7  97741216.298 7        45.100    24907210.945 7 100290969.703 7        47.500    24907214.411 8  99016099.301 8        49.100    24907202.832 8 106240399.205 8        49.800
E07  24554457.409 7 129034521.730 7        47.100    24554468.191 7  96356979.195 7        46.600    24554464.499 7  98870625.664 7        47.700    24554468.073 8  97613809.730 8        50.000    24554454.242 8 104735786.054 8        50.300
E13  24883422.865 7 130763123.622 7        45.700    24883443.484 7  97647781.393 7        46.100    24883438.948 7 100195108.290 7        47.300    24883442.937 8  98921451.646 8        49.600    24883425.519 8 106138852.914 8        48.300
E02  26876733.593 6 141238231.417 6        41.400    26876754.569 7 105470207.666 7        45.700    26876748.743 7 108221582.438 7        44.500    26876753.686 8 106845904.349 8        48.400    26876738.371 7 114641426.422 7        45.400
E30  25502900.757 7 134018709.774 7        46.400    25502921.898 7 100079036.275 7        46.100    25502917.788 7 102689767.726 7        47.700    25502921.506 8 101384306.796 8        49.500    25502904.287 8 108781439.760 8        48.200
E08  25978565.453 7 136518196.416 7        43.600    25978578.983 7 101945412.970 7        45.300    25978575.061 7 104604846.888 7        45.900    25978579.199 8 103275138.224 8        48.800    25978565.693 8 110810184.068 8        48.700
> 2024 10 17  4  4 30.0000000  0 42       0.000000000000
C59                                                                                                  36924879.513 7 192277467.397 7        42.000                                                    36924864.126 7 156241098.942 7        44.500    36924872.888 7 148681069.410 7        44.000
C60                                                                                                  37413759.185 6 194823179.688 6        40.900                                                    37413741.112 7 158309704.168 7        43.800    37413751.269 7 150649590.196 7        43.600
C26  24283333.915 6 127609673.128 6        41.800    24283344.309 7  95292975.262 7        46.700    24283336.020 7 126449638.380 7        42.900                                                    24283332.763 7 102750657.216 7        43.400    24283340.712 7  97778859.480 7        42.500
C24  21532296.316 8 113153001.304 8        48.900    21532299.629 8  84497398.454 8        49.300    21532297.774 8 112124342.038 8        48.100                                                    21532290.043 7  91110195.425 7        45.800    21532296.772 7  86701660.022 7        47.100
C39  36156843.190 8 190005463.999 8        48.900    36156845.152 8 141887183.197 8        48.900    36156844.741 7 188278144.508 7        46.600                                                    36156834.965 7 152991416.481 7        45.600    36156841.375 7 145588580.443 7        43.600
C38  35881173.906 7 188556837.835 7        47.600    35881180.201 8 140805383.109 8        49.400    35881175.340 7 186842640.930 7        46.400                                                    35881168.937 7 151824953.649 7        46.300    35881176.596 7 144478558.319 7        45.200
C16                                                                                                  36220971.042 7 188612070.445 7        47.600    36220972.818 7 145846811.946 7        44.000    36220963.579 7 153262717.367 7        42.200
C14                                                                                                  22587444.363 7 117618728.000 7        45.900    22587443.268 8  90950317.264 8        48.100    22587434.902 7  95574936.182 7        45.700
C13                                                                                                  35936766.859 7 187132144.116 7        47.700    35936769.244 7 144702440.158 7        43.300    35936760.971 7 152060159.620 7        43.700
C06                                                                                                  36226187.946 7 188639237.292 7        45.100    36226185.740 7 145867808.608 7        45.000    36226177.594 7 153284841.819 7        42.600
C05                                                                                                  39225284.900 5 204256546.95815        32.100    39225292.450 6 157943986.77016        38.600    39225284.231 5 165975005.53915        35.600
C04                                                                                                  38461169.685 6 200277283.515 6        36.200    38461177.696 7 154867103.283 7        43.200    38461169.229 6 162741674.058 6        40.000
C03                                                                                                  36059160.006 6 187769450.908 6        40.600    36059159.597 7 145195220.759 7        44.100    36059153.596 7 152578009.616 7        42.400
C02                                                                                                  36895275.161 6 192123305.899 6        36.700    36895275.290 7 148561909.385 7        43.900    36895270.038 6 156115891.644 6        40.800
C01                                                                                                  37332084.119 6 194397874.194 6        39.500    37332089.874 7 150320756.705 7        44.500    37332082.481 6 157964166.258 6        40.500
R16  22425511.499 7 119793012.593 7        43.500    22425511.534 7 119793007.564 7        43.500    22425527.336 6  93172367.705 6        41.600    22425528.242 6  93172346.703 6        39.200
R06  21406983.382 5 114231674.925 5        34.500    21406982.243 5 114231710.911 5        33.800
I10  36500097.458 7 143234134.186 7        47.600
G28  22878241.847 6 120226019.129 6        41.800    22878240.830 7 120226026.142 7        43.400    22878265.458 7  93682704.318 7        45.900    22878268.354 7  89779293.859 7        46.300
J02  37104663.738 6 194986326.250 6        41.800    37104662.889 7 194986368.263 7        44.900    37104659.821 6 194986377.551 6        41.300    37104690.028 7 151937490.298 7        45.600    37104691.615 7 145606757.224 7        47.400
G18  22810011.198 6 119867222.792 6        39.600    22810009.139 7 119867125.796 7        42.600    22810034.590 7  93402941.659 7        44.500    22810037.599 7  89511161.195 7        45.200
G23  20151430.096 8 105896434.739 8        48.500    20151428.502 8 105896669.734 8        49.100    20151442.649 8  82516912.534 8        50.500    20151443.563 8  79078719.433 8        52.500
J03  36224404.160 6 190360392.139 6        40.600    36224402.570 7 190360438.143 7        42.600    36224399.116 6 190360464.864 6        39.000    36224429.499 7 148332840.092 7        44.800    36224430.680 7 142152295.409 7        47.100
J07  36502217.147 6 191820360.190 6        39.700    36502215.664 7 191820411.188 7        43.000    36502210.389 7 191820368.933 7        47.100    36502234.588 8 149470493.210 8        49.600    36502233.661 8 143242542.981 8        49.300
J04  38633633.875 7 203021047.281 7        43.700    38633632.573 7 203021163.275 7        47.200    38633630.259 7 203021128.658 7        46.400    38633648.497 8 158198353.003 8        48.100    38633646.935 8 151606743.932 8        49.500
G10  21714684.647 7 114111431.400 7        47.800                                                    21714699.575 7  88918065.252 7        45.400    21714694.551 7  85213145.709 7        47.200
C25  23532489.587 7 123664091.626 7        43.900    23532505.033 7  92346622.018 7        43.900    23532491.809 7 122539881.005 7        43.200                                                    23532491.949 7  99573710.158 7        42.700    23532501.245 7  94755656.189 7        42.400
C33  23525562.739 7 123627826.725 7        46.100    23525594.071 7  92319459.031 7        47.000    23525564.714 7 122503797.032 7        44.800                                                    23525571.020 7  99544398.370 7        45.000    23525590.207 7  94727784.734 7        43.400
C42  22999763.643 7 120864509.874 7        47.000    22999782.126 8  90256003.084 8        49.200    22999765.104 7 119765746.200 7        46.200                                                    22999768.906 7  97319471.339 7        45.200    22999778.463 7  92610496.976 7        45.500
I03  41428039.498 7 162572455.933 7        47.300
G12  22550522.568 7 118503887.767 7        43.600                                                    22550544.234 7  92340950.262 7        43.700
R07  21294472.645 7 113991001.197 7        47.100    21294471.495 7 113991134.221 7        45.500    21294482.538 7  88659833.401 7        44.400    21294482.523 7  88659687.389 7        43.100
R22  21913663.778 7 116976570.461 7        43.900    21913663.838 7 116976592.465 7        44.300    21913681.834 7  90981838.010 7        43.500    21913681.789 7  90981828.999 7        44.700
R10  20817584.346 7 110969482.861 7        43.700    20817582.806 7 110969479.860 7        42.100
G25  21916869.914 7 115173718.229 7        42.200                                                    21916895.710 7  89746012.723 7        43.800    21916895.432 8  86006619.268 8        49.200
G24  22651946.469 6 119036683.801 6        41.600                                                    22651965.799 7  92755780.130 7        42.800    22651963.107 7  88890960.753 7        46.800
E26  24907037.096 7 130887332.565 7        47.000    24907048.635 7  97740563.299 7        46.300    24907044.777 7 100290299.703 7        47.400    24907048.277 8  99015437.797 8        49.800    24907036.507 8 106239689.486 8        49.200
E07  24554415.678 7 129034302.842 7        46.900    24554426.296 7  96356815.709 7        46.900    24554422.771 7  98870457.925 7        47.600    24554426.522 8  97613644.113 8        50.200    24554413.278 8 104735608.359 8        50.900
E13  24896889.580 7 130833889.631 7        45.600    24896910.223 7  97700625.715 7        46.900    24896905.624 7 100249331.220 7        47.000    24896909.620 8  98974985.270 8        49.700    24896892.442 8 106196292.579 8        48.900
E02  26880191.895 6 141256408.858 6        40.600    26880213.812 7 105483781.680 7        45.900    26880207.957 7 108235510.571 7        45.000    26880212.831 8 106859655.430 8        48.300    26880198.122 7 114656180.824 7        45.800
E30  25494124.675 7 133972596.326 7        46.000    25494146.499 7 100044601.043 7        45.800    25494142.618 8 102654434.158 8        48.500    25494146.330 8 101349422.398 8        49.900    25494129.154 8 108744010.096 8        48.400
E08  25984370.470 7 136548700.672 7        43.900    25984384.462 7 101968191.850 7        45.300    25984380.522 7 104628220.023 7        46.500    25984384.176 8 103298214.241 8        49.000    25984370.352 8 110834943.821 8        48.000
> 2024 10 17  4  5  0.0000000  0 42       0.000000000000
C59                                                                                                  36925032.269 7 192278262.752 7        42.000                                                    36925017.035 7 156241745.125 7        44.900    36925025.777 7 148681684.305 7        43.700
C60                                                                                                  37413881.265 6 194823814.945 6        41.000                                                    37413863.160 7 158310220.266 7        43.500    37413873.457 7 150650081.286 7        43.400
C26  24296969.503 7 127681325.505 7        42.600    24296979.422 7  95346481.670 7        46.200    24296970.450 7 126520639.362 7        42.200                                                    24296968.006 7 102808351.169 7        43.000    24296976.162 7  97833761.742 7        42.500
C24  21530417.983 8 113143132.079 8        49.000    21530421.552 8  84490028.569 8        48.500    21530419.720 7 112114562.516 7        47.700                                                    21530412.058 7  91102248.757 7        45.900    21530418.718 7  86694097.875 7        47.100
C39  36159243.959 8 190018079.964 8        48.800    36159246.022 8 141896604.114 8        49.100    36159245.551 8 188290645.789 8        48.000                                                    36159235.751 7 153001574.727 7        45.800    36159242.180 7 145598247.146 7        43.500
C38  35881421.208 7 188558137.253 7        47.400    35881427.510 8 140806353.296 8        49.100    35881422.837 7 186843928.534 7        46.600                                                    35881416.358 7 151825999.806 7        45.800    35881424.081 7 144479553.833 7        45.100
C16                                                                                                  36222869.179 7 188621956.047 7        47.700    36222871.004 7 145854456.033 7        43.800    36222861.949 7 153270750.158 7        42.600
C14                                                                                                  22583150.018 7 117596366.096 7        45.600    22583149.103 7  90933025.559 7        47.600    22583140.413 7  95556765.258 7        45.900
C13                                                                                                  35933462.711 7 187114939.363 7        47.300    35933465.658 7 144689136.257 7        42.800    35933457.123 7 152046179.265 7        43.700
C06                                                                                                  36226865.418 7 188642764.009 7        43.900    36226863.084 7 145870535.614 7        46.100    36226854.888 7 153287707.506 7        43.200
C05                                                                                                  39225192.584 5 204256063.72115        33.400    39225199.742 6 157943612.96716        37.200    39225191.460 5 165974612.76315        35.600
C04                                                                                                  38461411.373 6 200278541.031 6        36.400    38461419.498 7 154868075.470 7        42.200    38461410.853 6 162742695.721 6        40.100
C03                                                                                                  36059308.445 6 187770225.291 6        40.700    36059308.814 7 145195819.457 7        43.600    36059302.341 7 152578638.775 7        42.600
C02                                                                                                  36895304.339 6 192123456.822 6        36.900    36895304.307 7 148562025.974 7        43.500    36895299.123 6 156116014.185 6        40.900
C01                                                                                                  37332236.237 6 194398667.291 6        39.600    37332242.262 7 150321369.834 7        44.300    37332235.015 6 157964810.622 6        41.400
R16  22443810.218 7 119890757.603 7        46.600    22443810.758 7 119890752.643 7        44.700    22443825.446 7  93248391.502 7        42.500    22443826.254 6  93248370.483 6        40.000
R06  21408644.188 5 114240532.258 5        34.500    21408642.730 5 114240568.251 5        34.300
I10  36499771.604 8 143232854.208 8        48.100
G28  22863440.500 6 120148239.164 6        41.800    22863439.464 7 120148246.160 7        43.400    22863463.901 7  93622096.754 7        44.900    22863467.181 7  89721211.644 7        46.600
J02  37104483.820 6 194985379.707 6        40.500    37104482.155 7 194985421.705 7        44.700    37104479.152 6 194985431.007 6        40.300    37104510.209 7 151936752.784 7        45.000    37104511.408 7 145606050.450 7        47.600
G18  22828241.866 6 119963024.122 6        40.300    22828239.753 7 119962927.131 7        42.300    22828265.552 7  93477591.902 7        44.500    22828268.308 7  89582700.972 7        45.800
G23  20149830.666 8 105888029.018 8        48.100    20149829.035 8 105888264.025 8        48.900    20149843.457 8  82510362.478 8        50.300    20149843.995 8  79072442.263 8        52.300
J03  36226858.670 6 190373292.974 6        39.900    36226857.434 6 190373338.949 6        41.800    36226854.197 6 190373365.703 6        39.400    36226884.578 7 148342892.655 7        45.400    36226885.629 7 142161929.125 7        46.800
J07  36502217.441 6 191820362.884 6        39.500    36502216.193 7 191820413.886 7        42.800    36502211.082 7 191820371.633 7        47.100    36502235.297 8 149470495.185 8        49.800    36502234.364 8 143242544.848 8        49.100
J04  38628582.835 7 202994503.518 7        43.700    38628581.564 7 202994619.510 7        47.100    38628579.149 7 202994584.896 7        45.300    38628597.335 8 158177669.434 8        48.300    38628595.993 8 151586922.152 8        49.200
G10  21699890.379 7 114033688.145 7        47.400                                                    21699905.903 7  88857486.135 7        46.000    21699900.173 7  85155090.711 7        47.300
C25  23516084.198 7 123577882.856 7        44.300    23516100.107 7  92282245.505 7        44.200    23516086.693 7 122454455.954 7        43.600                                                    23516087.115 7  99504295.444 7        43.900    23516095.975 7  94689600.287 7        42.400
C33  23516367.110 7 123579503.453 7        46.300    23516398.368 7  92283373.485 7        47.000    23516369.030 7 122455913.058 7        45.500                                                    23516375.646 7  99505488.741 7        45.300    23516394.505 7  94690757.831 7        43.200
C42  23001078.982 7 120871421.698 7        47.300    23001097.573 8  90261164.290 8        49.400    23001080.765 7 119772595.199 7        46.200                                                    23001084.499 7  97325036.553 7        45.600    23001094.044 7  92615792.861 7        45.600
I03  41417885.555 7 162532608.453 7        47.100
G12  22545951.193 7 118479865.321 7        44.200                                                    22545973.069 7  92322231.593 7        43.800
R07  21286924.782 7 113950598.945 7        47.500    21286924.146 7 113950731.960 7        46.100    21286935.934 7  88628409.397 7        44.300    21286934.969 7  88628263.399 7        44.000
R22  21923216.534 7 117027560.677 7        44.500    21923216.696 7 117027582.682 7        44.100    21923233.683 7  91021496.640 7        44.200    21923234.438 7  91021487.645 7        45.100
R10  20797924.751 7 110864686.531 7        43.800    20797923.609 7 110864683.530 7        42.800
G25  21902120.957 7 115096214.646 7        42.100                                                    21902147.133 7  89685620.500 7        43.400    21902146.707 8  85948743.422 8        48.900
G24  22670353.707 6 119133414.409 6        40.900                                                    22670373.303 7  92831154.372 7        44.100    22670370.826 7  88963194.387 7        47.100
E26  24906950.679 7 130886877.209 7        47.400    24906962.087 7  97740223.055 7        46.000    24906958.174 7 100289950.609 7        46.800    24906961.813 8  99015093.135 8        49.300    24906950.038 8 106239319.723 8        49.100
E07  24554369.650 7 129034059.072 7        47.500    24554380.253 7  96356633.618 7        46.900    24554376.401 7  98870271.085 7        47.000    24554380.113 8  97613459.649 8        49.600    24554366.956 8 104735410.472 8        51.100
E13  24910396.552 7 130904867.525 7        45.600    24910416.967 7  97753628.285 7        46.400    24910412.931 7 100303716.529 7        47.600    24910416.748 8  99028679.210 8        49.500    24910399.633 8 106253904.204 8        49.400
E02  26883722.297 6 141274959.398 6        40.400    26883743.127 7 105497634.355 7        44.700    26883738.487 7 108249724.600 7        45.700    26883742.712 8 106873688.773 8        48.500    26883728.627 7 114671238.052 7        46.400
E30  25485399.338 7 133926742.072 7        46.100    25485420.631 7 100010359.321 7        45.900    25485416.431 8 102619299.181 8        48.300    25485420.444 8 101314734.065 8        49.900    25485403.390 8 108706790.812 8        48.600
E08  25990164.064 7 136579147.367 7        43.500    25990178.604 7 101990927.775 7        45.700    25990174.935 7 104651549.079 7        45.700    25990178.125 8 103321246.732 8        48.700    25990163.906 7 110859656.873 7        47.900
> 2024 10 17  4  5 30.0000000  0 42       0.000000000000
